{ 
"nodes":[
{"id": "1",
    "name":"1a hunkeler holzbau AG",
    "type":"fab",
    "country":"CH",
    "city":"Ebikon",
    "lon":8.338521,
    "lat":47.0812067,
    "order":1,
    "projects":[49]
              }
,
{"id": "2",
    "name":"2B Planungsgesellschaft bR",
    "type":"eng",
    "country":"DE",
    "city":"Berlin",
    "lon":13.3888599,
    "lat":52.5170365,
    "order":2,
    "projects":[249]
              }
,
{"id": "3",
    "name":"2M Ingénierie Civile",
    "type":"eng",
    "country":"CH",
    "city":"Yverdon-les-Bains",
    "lon":6.6409158,
    "lat":46.7785711,
    "order":3,
    "projects":[94]
              }
,
{"id": "4",
    "name":"5th Studio",
    "type":"arch",
    "country":"GB",
    "city":"London",
    "lon":-0.1276474,
    "lat":51.5073219,
    "order":4,
    "projects":[20]
              }
,
{"id": "5",
    "name":"6a architects",
    "type":"arch",
    "country":"GB",
    "city":"London",
    "lon":-0.1276474,
    "lat":51.5073219,
    "order":5,
    "projects":[135]
              }
,
{"id": "6",
    "name":"A+ Architects",
    "type":"arch",
    "country":"FR",
    "city":"Montpellier",
    "lon":3.8767337,
    "lat":43.6112422,
    "order":6,
    "projects":[156]
              }
,
{"id": "7",
    "name":"A2architekten",
    "type":"arch",
    "country":"DE",
    "city":"Freising",
    "lon":11.7439565,
    "lat":48.4008273,
    "order":7,
    "projects":[254]
              }
,
{"id": "8",
    "name":"aap.architekten",
    "type":"arch",
    "country":"AT",
    "city":"Vienna",
    "lon":16.3725042,
    "lat":48.2083537,
    "order":8,
    "projects":[140]
              }
,
{"id": "9",
    "name":"Aba-Holz van Kempen",
    "type":"fab",
    "country":"DE",
    "city":"Adelsried",
    "lon":10.7193232,
    "lat":48.4252851,
    "order":9,
    "projects":[24,273]
              }
,
{"id": "10",
    "name":"Abbott Construction",
    "type":"fab",
    "country":"US",
    "city":"Seattle",
    "lon":-122.330062,
    "lat":47.6038321,
    "order":10,
    "projects":[179]
              }
,
{"id": "11",
    "name":"acau architecture sa",
    "type":"arch",
    "country":"CH",
    "city":"Carouge",
    "lon":6.1396839,
    "lat":46.1846691,
    "order":11,
    "projects":[207]
              }
,
{"id": "12",
    "name":"Acton Ostry Architects",
    "type":"arch",
    "country":"CA",
    "city":"Vancouver",
    "lon":-123.113952,
    "lat":49.2608724,
    "order":12,
    "projects":[171]
              }
,
{"id": "13",
    "name":"Adjaye Associates",
    "type":"arch",
    "country":"GB",
    "city":"London",
    "lon":-0.1276474,
    "lat":51.5073219,
    "order":13,
    "projects":[87]
              }
,
{"id": "14",
    "name":"ADK Modulraum",
    "type":"eng",
    "country":"DE",
    "city":"Neresheim",
    "lon":10.3343747,
    "lat":48.7539485,
    "order":14,
    "projects":[248]
              }
,
{"id": "15",
    "name":"Adviesbureau Geuijen",
    "type":"fab",
    "country":"NL",
    "city":"Dinxperlo",
    "lon":6.4879872,
    "lat":51.863757,
    "order":15,
    "projects":[300]
              }
,
{"id": "16",
    "name":"AECOM",
    "type":"eng",
    "country":"US",
    "city":"Los Angeles",
    "lon":-118.242766,
    "lat":34.0536909,
    "order":16,
    "projects":[99,177]
              }
,
{"id": "17",
    "name":"AFRY",
    "type":"eng",
    "country":"CH",
    "city":"Zurich",
    "lon":8.5410422,
    "lat":47.3744489,
    "order":17,
    "projects":[111,197]
              }
,
{"id": "18",
    "name":"AIA Associes",
    "type":"arch",
    "country":"FR",
    "city":"Paris",
    "lon":2.3200410217200766,
    "lat":48.8588897,
    "order":18,
    "projects":[136,222,237]
              }
,
{"id": "19",
    "name":"Aichinger bau",
    "type":"fab",
    "country":"AT",
    "city":"Regau",
    "lon":13.688056,
    "lat":47.991944,
    "order":19,
    "projects":[76]
              }
,
{"id": "20",
    "name":"Aimeric Audebeau",
    "type":"arch",
    "country":"FR",
    "city":"Paris",
    "lon":2.3200410217200766,
    "lat":48.8588897,
    "order":20,
    "projects":[143]
              }
,
{"id": "21",
    "name":"AINS group",
    "type":"eng",
    "country":"FI",
    "city":"Tampere",
    "lon":23.7603118,
    "lat":61.4980214,
    "order":21,
    "projects":[114,191,295]
              }
,
{"id": "22",
    "name":"Akera Engineers",
    "type":"eng",
    "country":"GB",
    "city":"London",
    "lon":-0.1276474,
    "lat":51.5073219,
    "order":22,
    "projects":[53]
              }
,
{"id": "23",
    "name":"Alfa Natura d.o.o.",
    "type":"fab",
    "country":"SI",
    "city":"Mengeš",
    "lon":14.5722166,
    "lat":46.1629579,
    "order":23,
    "projects":[188]
              }
,
{"id": "24",
    "name":"Alferink van Schieveen",
    "type":"eng",
    "country":"NL",
    "city":"Zwolle",
    "lon":6.0943765,
    "lat":52.5089759,
    "order":24,
    "projects":[300]
              }
,
{"id": "25",
    "name":"Allford Hall Monaghan Morris",
    "type":"arch",
    "country":"GB",
    "city":"London",
    "lon":-0.1276474,
    "lat":51.5073219,
    "order":25,
    "projects":[103]
              }
,
{"id": "26",
    "name":"ALoCo",
    "type":"arch",
    "country":"SE",
    "city":"Karlskrona",
    "lon":15.5866422,
    "lat":56.1621073,
    "order":26,
    "projects":[122]
              }
,
{"id": "27",
    "name":"Anders Associates",
    "type":"eng",
    "country":"GB",
    "city":"Telford",
    "lon":-2.4514273,
    "lat":52.6780419,
    "order":27,
    "projects":[6]
              }
,
{"id": "28",
    "name":"Andersen construction",
    "type":"fab",
    "country":"US",
    "city":"Portland",
    "lon":-122.674194,
    "lat":45.5202471,
    "order":28,
    "projects":[263]
              }
,
{"id": "29",
    "name":"Andreas Heller Architects & Designers",
    "type":"arch",
    "country":"DE",
    "city":"Hamburg",
    "lon":10.000654,
    "lat":53.550341,
    "order":29,
    "projects":[37]
              }
,
{"id": "30",
    "name":"Anne Carcelen",
    "type":"arch",
    "country":"FR",
    "city":"Paris",
    "lon":2.3200410217200766,
    "lat":48.8588897,
    "order":30,
    "projects":[237]
              }
,
{"id": "31",
    "name":"Anton Höss",
    "type":"arch",
    "country":"AT",
    "city":"Innsbruck",
    "lon":11.3927685,
    "lat":47.2654296,
    "order":31,
    "projects":[2]
              }
,
{"id": "32",
    "name":"Anttinen Oiva Arkkitehdit Oy",
    "type":"arch",
    "country":"FI",
    "city":"Helsinki",
    "lon":24.9427473,
    "lat":60.1674881,
    "order":32,
    "projects":[252,280,301]
              }
,
{"id": "33",
    "name":"Appesbacher Zimmerei. Holzbau. GmbH",
    "type":"fab",
    "country":"AT",
    "city":"Abersee",
    "lon":13.4169871,
    "lat":47.7266536,
    "order":33,
    "projects":[84]
              }
,
{"id": "34",
    "name":"Arbonis",
    "type":"fab",
    "country":"FR",
    "city":"Nanterre",
    "lon":2.2071267,
    "lat":48.8924273,
    "order":34,
    "projects":[156,222]
              }
,
{"id": "35",
    "name":"Arboreal Architecture",
    "type":"arch",
    "country":"GB",
    "city":"London",
    "lon":-0.1276474,
    "lat":51.5073219,
    "order":35,
    "projects":[91]
              }
,
{"id": "36",
    "name":"Arcadis",
    "type":"eng",
    "country":"NL",
    "city":"Amsterdam",
    "lon":4.8936041,
    "lat":52.3727598,
    "order":36,
    "projects":[139,177]
              }
,
{"id": "37",
    "name":"Architecture Studio",
    "type":"arch",
    "country":"FR",
    "city":"Paris",
    "lon":2.3200410217200766,
    "lat":48.8588897,
    "order":37,
    "projects":[235]
              }
,
{"id": "38",
    "name":"ARCHITEKTUR PITBAU",
    "type":"arch",
    "country":"LI",
    "city":"Triesenberg",
    "lon":9.5433663,
    "lat":47.1186181,
    "order":38,
    "projects":[32]
              }
,
{"id": "39",
    "name":"architekturagentur",
    "type":"arch",
    "country":"DE",
    "city":"Stuttgart",
    "lon":9.1800132,
    "lat":48.7784485,
    "order":39,
    "projects":[78,231]
              }
,
{"id": "40",
    "name":"Architekturbüro Peter Plattner",
    "type":"arch",
    "country":"IT",
    "city":"Bozen",
    "lon":11.3547801,
    "lat":46.4981125,
    "order":40,
    "projects":[77]
              }
,
{"id": "41",
    "name":"architekturWERKSTATT di Bruno Moser",
    "type":"arch",
    "country":"AT",
    "city":"Breitenbach",
    "lon":15.9071988,
    "lat":47.0593869,
    "order":41,
    "projects":[105]
              }
,
{"id": "42",
    "name":"Archobau",
    "type":"arch",
    "country":"CH",
    "city":"Chur",
    "lon":9.5264904,
    "lat":46.854747,
    "order":42,
    "projects":[126]
              }
,
{"id": "43",
    "name":"Arcon Houtconstructies",
    "type":"fab",
    "country":"NL",
    "city":"Nuenen",
    "lon":5.544006988824241,
    "lat":51.48603,
    "order":43,
    "projects":[300]
              }
,
{"id": "44",
    "name":"ARGE raumwerk",
    "type":"arch",
    "country":"DE",
    "city":"Frankfurt",
    "lon":8.6820917,
    "lat":50.1106444,
    "order":44,
    "projects":[223]
              }
,
{"id": "45",
    "name":"ARGE Scharabi | Raupach",
    "type":"arch",
    "country":"DE",
    "city":"Berlin",
    "lon":13.3888599,
    "lat":52.5170365,
    "order":45,
    "projects":[286]
              }
,
{"id": "46",
    "name":"ARGE SWAP Architekten",
    "type":"arch",
    "country":"AT",
    "city":"Vienna",
    "lon":16.3725042,
    "lat":48.2083537,
    "order":46,
    "projects":[259]
              }
,
{"id": "47",
    "name":"Arkitektbolaget",
    "type":"arch",
    "country":"SE",
    "city":"Växjö",
    "lon":14.8094385,
    "lat":56.8787183,
    "order":47,
    "projects":[13,129]
              }
,
{"id": "48",
    "name":"Arkkitehtitoimisto Arcadia Oy",
    "type":"arch",
    "country":"FI",
    "city":"Joensuu",
    "lon":29.7622128,
    "lat":62.6005753,
    "order":48,
    "projects":[191]
              }
,
{"id": "49",
    "name":"Arkkitehtitoimisto Jukka Turtiainen Oy",
    "type":"arch",
    "country":"FI",
    "city":"Helsinki",
    "lon":24.9427473,
    "lat":60.1674881,
    "order":49,
    "projects":[295]
              }
,
{"id": "50",
    "name":"Arkkitehtuuritoimisto AT",
    "type":"arch",
    "country":"FI",
    "city":"Jyväskylä",
    "lon":25.7458236,
    "lat":62.2393431,
    "order":50,
    "projects":[64]
              }
,
{"id": "51",
    "name":"Armitage Williams Construction",
    "type":"fab",
    "country":"NZ",
    "city":"Christchurch",
    "lon":172.6366455,
    "lat":-43.530955,
    "order":51,
    "projects":[154]
              }
,
{"id": "52",
    "name":"Aronsohn",
    "type":"eng",
    "country":"NL",
    "city":"Rotterdam",
    "lon":4.47775,
    "lat":51.9244424,
    "order":52,
    "projects":[245]
              }
,
{"id": "53",
    "name":"ArtBuild",
    "type":"arch",
    "country":"BE",
    "city":"Brussels",
    "lon":4.351697,
    "lat":50.8465573,
    "order":53,
    "projects":[165]
              }
,
{"id": "54",
    "name":"ARTEC Bergen",
    "type":"arch",
    "country":"NO",
    "city":"Bergen",
    "lon":5.3259192,
    "lat":60.3943055,
    "order":54,
    "projects":[128]
              }
,
{"id": "55",
    "name":"Arup",
    "type":"eng",
    "country":"GB",
    "city":"London",
    "lon":-0.1276474,
    "lat":51.5073219,
    "order":55,
    "projects":[95,120,137,294]
              }
,
{"id": "56",
    "name":"ASP architecture",
    "type":"arch",
    "country":"FR",
    "city":"Saint-Dié-des-Vosges",
    "lon":6.9477708,
    "lat":48.2873153,
    "order":56,
    "projects":[96,186]
              }
,
{"id": "57",
    "name":"Asplan Viak",
    "type":"eng",
    "country":"NO",
    "city":"Sandvika",
    "lon":10.5249914,
    "lat":59.8921158,
    "order":57,
    "projects":[93]
              }
,
{"id": "58",
    "name":"ASSMANN Beraten + Planen",
    "type":"eng",
    "country":"DE",
    "city":"Stuttgart",
    "lon":9.1800132,
    "lat":48.7784485,
    "order":58,
    "projects":[37]
              }
,
{"id": "59",
    "name":"Atelier du Pont",
    "type":"arch",
    "country":"FR",
    "city":"Paris",
    "lon":2.3200410217200766,
    "lat":48.8588897,
    "order":59,
    "projects":[253]
              }
,
{"id": "60",
    "name":"Atelier One",
    "type":"eng",
    "country":"GB",
    "city":"London",
    "lon":-0.1276474,
    "lat":51.5073219,
    "order":60,
    "projects":[28]
              }
,
{"id": "61",
    "name":"Atelier PK Architekten",
    "type":"arch",
    "country":"DE",
    "city":"Berlin",
    "lon":13.3888599,
    "lat":52.5170365,
    "order":61,
    "projects":[40,267]
              }
,
{"id": "62",
    "name":"Athfield Architects",
    "type":"arch",
    "country":"NZ",
    "city":"Wellington",
    "lon":174.7772114,
    "lat":-41.2887953,
    "order":62,
    "projects":[51]
              }
,
{"id": "63",
    "name":"Attilio Marchetti Rossi",
    "type":"eng",
    "country":"IT",
    "city":"Pesaro",
    "lon":12.9131228,
    "lat":43.9098114,
    "order":63,
    "projects":[162]
              }
,
{"id": "64",
    "name":"aurecongroup",
    "type":"eng",
    "country":"AU",
    "city":"Melbourne",
    "lon":144.9631608,
    "lat":-37.8142176,
    "order":64,
    "projects":[175]
              }
,
{"id": "65",
    "name":"Avanti Architects",
    "type":"arch",
    "country":"GB",
    "city":"London",
    "lon":-0.1276474,
    "lat":51.5073219,
    "order":65,
    "projects":[60]
              }
,
{"id": "66",
    "name":"A-Z Holzbau Zimmerei",
    "type":"fab",
    "country":"DE",
    "city":"Berlin",
    "lon":13.3888599,
    "lat":52.5170365,
    "order":66,
    "projects":[40]
              }
,
{"id": "67",
    "name":"B&K Structures",
    "type":"fab",
    "country":"GB",
    "city":"Derby",
    "lon":-1.4761491,
    "lat":52.9212617,
    "order":67,
    "projects":[44,80,104,120,130,143,255]
              }
,
{"id": "68",
    "name":"B&S AG",
    "type":"eng",
    "country":"CH",
    "city":"Bern",
    "lon":7.4514512,
    "lat":46.9482713,
    "order":68,
    "projects":[210]
              }
,
{"id": "69",
    "name":"Barthes Bureau d’Études Bois",
    "type":"eng",
    "country":"FR",
    "city":"Maidières",
    "lon":6.0408743,
    "lat":48.9009058,
    "order":69,
    "projects":[238]
              }
,
{"id": "70",
    "name":"BAS Arkitekter",
    "type":"arch",
    "country":"NO",
    "city":"Sarpsborg",
    "lon":11.229781140849298,
    "lat":59.254955,
    "order":70,
    "projects":[67,125]
              }
,
{"id": "71",
    "name":"Bates Smart",
    "type":"arch",
    "country":"AU",
    "city":"Melbourne",
    "lon":144.9631608,
    "lat":-37.8142176,
    "order":71,
    "projects":[175,205]
              }
,
{"id": "72",
    "name":"BAU",
    "type":"arch",
    "country":"SE",
    "city":"Stockholm",
    "lon":18.0710935,
    "lat":59.3251172,
    "order":72,
    "projects":[213]
              }
,
{"id": "73",
    "name":"Bauart Architekten und Planer AG",
    "type":"arch",
    "country":"CH",
    "city":"Bern",
    "lon":7.4514512,
    "lat":46.9482713,
    "order":73,
    "projects":[54]
              }
,
{"id": "74",
    "name":"bauart Konstruktions",
    "type":"eng",
    "country":"DE",
    "city":"Lauterbach",
    "lon":9.3968633,
    "lat":50.6368507,
    "order":74,
    "projects":[22,33,54,88,215,240,275,285]
              }
,
{"id": "75",
    "name":"Baubüro in situ",
    "type":"arch",
    "country":"CH",
    "city":"Basel",
    "lon":7.5878261,
    "lat":47.5581077,
    "order":75,
    "projects":[227]
              }
,
{"id": "76",
    "name":"Baucon Zt GmbH",
    "type":"eng",
    "country":"AT",
    "city":"Zell am See",
    "lon":12.7963165,
    "lat":47.3239636,
    "order":76,
    "projects":[69]
              }
,
{"id": "77",
    "name":"Bauingenieure/Lackner/Egger ZT GmbH",
    "type":"eng",
    "country":"AT",
    "city":"Villach",
    "lon":13.8500268,
    "lat":46.6167284,
    "order":77,
    "projects":[84]
              }
,
{"id": "78",
    "name":"Baumeister Jürgen Haller",
    "type":"arch",
    "country":"AT",
    "city":"Mellau ",
    "lon":9.8811896,
    "lat":47.3499764,
    "order":78,
    "projects":[77]
              }
,
{"id": "79",
    "name":"baumschlager eberle architekten",
    "type":"arch",
    "country":"AT",
    "city":"Lustenau",
    "lon":9.6599406,
    "lat":47.4276538,
    "order":79,
    "projects":[222]
              }
,
{"id": "80",
    "name":"BBN Adviseurs",
    "type":"eng",
    "country":"NL",
    "city":"Houten",
    "lon":5.161216639426677,
    "lat":52.03061555,
    "order":80,
    "projects":[245]
              }
,
{"id": "81",
    "name":"Bennetts Associates",
    "type":"arch",
    "country":"GB",
    "city":"London",
    "lon":-0.1276474,
    "lat":51.5073219,
    "order":81,
    "projects":[25]
              }
,
{"id": "82",
    "name":"BETOM",
    "type":"eng",
    "country":"FR",
    "city":"Paris",
    "lon":2.3200410217200766,
    "lat":48.8588897,
    "order":82,
    "projects":[121]
              }
,
{"id": "83",
    "name":"BFV architects",
    "type":"arch",
    "country":"FR",
    "city":"Paris",
    "lon":2.3200410217200766,
    "lat":48.8588897,
    "order":83,
    "projects":[238]
              }
,
{"id": "84",
    "name":"Billström Riemer Andersson AB",
    "type":"fab",
    "country":"SE",
    "city":"Mölndal",
    "lon":12.0153085,
    "lat":57.6564918,
    "order":84,
    "projects":[298]
              }
,
{"id": "85",
    "name":"binderholz",
    "type":"fab",
    "country":"AT",
    "city":"Fügen",
    "lon":11.852773301751128,
    "lat":47.3469156,
    "order":85,
    "projects":[80,143,216,206]
              }
,
{"id": "86",
    "name":"Bjerking",
    "type":"eng",
    "country":"SE",
    "city":"Stockholm",
    "lon":18.0710935,
    "lat":59.3251172,
    "order":86,
    "projects":[226]
              }
,
{"id": "87",
    "name":"Blazquez Guanter",
    "type":"eng",
    "country":"ES",
    "city":"Barcelona",
    "lon":2.1774322,
    "lat":41.3828939,
    "order":87,
    "projects":[256]
              }
,
{"id": "88",
    "name":"Blumer Lehmann AG",
    "type":"fab",
    "country":"CH",
    "city":"Gossau",
    "lon":9.249359,
    "lat":47.4155906,
    "order":88,
    "projects":[54,73,86,111,233,227]
              }
,
{"id": "89",
    "name":"Bois Consult Natterer SA",
    "type":"eng",
    "country":"CH",
    "city":"Etoy",
    "lon":6.4193113,
    "lat":46.4860906,
    "order":89,
    "projects":[12]
              }
,
{"id": "90",
    "name":"BOKAPowell",
    "type":"arch",
    "country":"US",
    "city":"Texas",
    "lon":-74.3693157,
    "lat":40.3606638,
    "order":90,
    "projects":[241]
              }
,
{"id": "91",
    "name":"BoKlok",
    "type":"fab",
    "country":"SE",
    "city":"Malmö",
    "lon":13.0001566,
    "lat":55.6052931,
    "order":91,
    "projects":[122]
              }
,
{"id": "92",
    "name":"Bollinger+Grohmann",
    "type":"eng",
    "country":"DE",
    "city":"Frankfurt",
    "lon":8.6820917,
    "lat":50.1106444,
    "order":92,
    "projects":[107,259]
              }
,
{"id": "93",
    "name":"Borlini & Zanini SA",
    "type":"eng",
    "country":"CH",
    "city":"Collina d'Oro",
    "lon":8.917952,
    "lat":45.979111,
    "order":93,
    "projects":[11,50,75]
              }
,
{"id": "94",
    "name":"Bornstein Lyckefors Arkitekter",
    "type":"arch",
    "country":"SE",
    "city":"Gothenburg",
    "lon":11.9670171,
    "lat":57.7072326,
    "order":94,
    "projects":[181]
              }
,
{"id": "95",
    "name":"Bosch.Capdeferro",
    "type":"arch",
    "country":"ES",
    "city":"Girona",
    "lon":2.8199439,
    "lat":41.9793006,
    "order":95,
    "projects":[256]
              }
,
{"id": "96",
    "name":"Bouthillette Parizeau",
    "type":"eng",
    "country":"CA",
    "city":"Montreal",
    "lon":-73.5698065,
    "lat":45.5031824,
    "order":96,
    "projects":[133]
              }
,
{"id": "97",
    "name":"Bouygues Bâtiment IDF",
    "type":"fab",
    "country":"FR",
    "city":"Paris",
    "lon":2.3200410217200766,
    "lat":48.8588897,
    "order":97,
    "projects":[290]
              }
,
{"id": "98",
    "name":"Brendeland & Kristoffersen Arkitekter",
    "type":"arch",
    "country":"NO",
    "city":"Trondheim",
    "lon":10.3952118,
    "lat":63.4304475,
    "order":98,
    "projects":[5]
              }
,
{"id": "99",
    "name":"Brüder Resch",
    "type":"eng",
    "country":"AT",
    "city":"Ulrichsberg",
    "lon":13.9105182,
    "lat":48.6751701,
    "order":99,
    "projects":[138]
              }
,
{"id": "100",
    "name":"Brüggemann Holzbau GmbH & Co.",
    "type":"fab",
    "country":"DE",
    "city":"Neuenkirchen",
    "lon":8.9877874,
    "lat":54.23649,
    "order":100,
    "projects":[284]
              }
,
{"id": "101",
    "name":"Brüninghoff",
    "type":"fab",
    "country":"DE",
    "city":"Heiden",
    "lon":6.9340455,
    "lat":51.8265593,
    "order":101,
    "projects":[137]
              }
,
{"id": "102",
    "name":"Bruno Mader",
    "type":"arch",
    "country":"FR",
    "city":"Paris",
    "lon":2.3200410217200766,
    "lat":48.8588897,
    "order":102,
    "projects":[85]
              }
,
{"id": "103",
    "name":"Bruno Spagolla Architekt",
    "type":"arch",
    "country":"AT",
    "city":"Bludenz",
    "lon":9.8219314,
    "lat":47.153037,
    "order":103,
    "projects":[14]
              }
,
{"id": "104",
    "name":"bsv arkitekter & ingenjörer ab",
    "type":"arch",
    "country":"SE",
    "city":"Värnamo",
    "lon":14.0410977,
    "lat":57.184902,
    "order":104,
    "projects":[19]
              }
,
{"id": "105",
    "name":"Bucher-Beholz Architekten",
    "type":"arch",
    "country":"DE",
    "city":"Gaienhofen",
    "lon":8.9818583,
    "lat":47.6821346,
    "order":105,
    "projects":[36]
              }
,
{"id": "106",
    "name":"Burckhardt+Partner AG",
    "type":"arch",
    "country":"CH",
    "city":"Basel",
    "lon":7.5878261,
    "lat":47.5581077,
    "order":106,
    "projects":[118]
              }
,
{"id": "107",
    "name":"Burkard Meyer Architects",
    "type":"arch",
    "country":"CH",
    "city":"Baden",
    "lon":8.3086822,
    "lat":47.4736827,
    "order":107,
    "projects":[196]
              }
,
{"id": "108",
    "name":"burkhalter sumi",
    "type":"arch",
    "country":"CH",
    "city":"Zurich",
    "lon":8.5410422,
    "lat":47.3744489,
    "order":108,
    "projects":[72,261]
              }
,
{"id": "109",
    "name":"Buro Happold",
    "type":"eng",
    "country":"GB",
    "city":"Bath",
    "lon":-2.3596963,
    "lat":51.3813864,
    "order":109,
    "projects":[25]
              }
,
{"id": "110",
    "name":"Büro Konstrukt",
    "type":"arch",
    "country":"CH",
    "city":"Luzern",
    "lon":8.3054682,
    "lat":47.0505452,
    "order":110,
    "projects":[228]
              }
,
{"id": "111",
    "name":"Carlos Martinez Architekten AG",
    "type":"arch",
    "country":"CH",
    "city":"Berneck",
    "lon":9.6102137,
    "lat":47.4249019,
    "order":111,
    "projects":[86,163]
              }
,
{"id": "112",
    "name":"Carta Architecture",
    "type":"arch",
    "country":"CA",
    "city":"Montreal",
    "lon":-73.5698065,
    "lat":45.5031824,
    "order":112,
    "projects":[131]
              }
,
{"id": "113",
    "name":"Catena Consulting Engineers",
    "type":"eng",
    "country":"US",
    "city":"Portland",
    "lon":-122.674194,
    "lat":45.5202471,
    "order":113,
    "projects":[239,282]
              }
,
{"id": "114",
    "name":"c-b-a",
    "type":"arch",
    "country":"US",
    "city":"Orlando",
    "lon":-81.3790304,
    "lat":28.5421109,
    "order":114,
    "projects":[208]
              }
,
{"id": "115",
    "name":"CBD d.o.o.",
    "type":"fab",
    "country":"SI",
    "city":"Ljubljana",
    "lon":14.5069289,
    "lat":46.0500268,
    "order":115,
    "projects":[188,297]
              }
,
{"id": "116",
    "name":"CBS",
    "type":"eng",
    "country":"FR",
    "city":"Choisy-le-Roi",
    "lon":2.4093664,
    "lat":48.7630238,
    "order":116,
    "projects":[235]
              }
,
{"id": "117",
    "name":"CCG",
    "type":"fab",
    "country":"GB",
    "city":"Glasgow",
    "lon":-4.2488787,
    "lat":55.8609825,
    "order":117,
    "projects":[182]
              }
,
{"id": "118",
    "name":"cepezed",
    "type":"arch",
    "country":"NL",
    "city":"Delft",
    "lon":4.362724538543995,
    "lat":51.999457199999995,
    "order":118,
    "projects":[211]
              }
,
{"id": "119",
    "name":"CF Møller Architects",
    "type":"arch",
    "country":"DK",
    "city":"Aarhus",
    "lon":10.2134046,
    "lat":56.1496278,
    "order":119,
    "projects":[226]
              }
,
{"id": "120",
    "name":"CHA Architecture",
    "type":"arch",
    "country":"US",
    "city":"Portland",
    "lon":-122.674194,
    "lat":45.5202471,
    "order":120,
    "projects":[133]
              }
,
{"id": "121",
    "name":"CLT-S",
    "type":"fab",
    "country":"BE",
    "city":"Westerlo",
    "lon":4.9168675,
    "lat":51.086694,
    "order":121,
    "projects":[269,270]
              }
,
{"id": "122",
    "name":"Code",
    "type":"arch",
    "country":"NO",
    "city":"Oslo",
    "lon":10.7389701,
    "lat":59.9133301,
    "order":122,
    "projects":[178]
              }
,
{"id": "123",
    "name":"Concrete Architects",
    "type":"eng",
    "country":"NL",
    "city":"Amsterdam",
    "lon":4.8936041,
    "lat":52.3727598,
    "order":123,
    "projects":[158]
              }
,
{"id": "124",
    "name":"ConLignum ZT GmbH",
    "type":"eng",
    "country":"AT",
    "city":"Rottenmann",
    "lon":14.3585643,
    "lat":47.524226,
    "order":124,
    "projects":[192]
              }
,
{"id": "125",
    "name":"Création Bois Construction",
    "type":"fab",
    "country":"FR",
    "city":"Lille",
    "lon":3.0635282,
    "lat":50.6365654,
    "order":125,
    "projects":[198]
              }
,
{"id": "126",
    "name":"Creation Holz",
    "type":"eng",
    "country":"CH",
    "city":"Herisau",
    "lon":9.2787571,
    "lat":47.38555,
    "order":126,
    "projects":[73,209,277]
              }
,
{"id": "127",
    "name":"Cree GmbH",
    "type":"fab",
    "country":"AT",
    "city":"Dornbirn",
    "lon":9.7423875,
    "lat":47.413631,
    "order":127,
    "projects":[46]
              }
,
{"id": "128",
    "name":"Cruard Charpente",
    "type":"fab",
    "country":"FR",
    "city":"Simplé",
    "lon":-0.8507541,
    "lat":47.8876818,
    "order":128,
    "projects":[136]
              }
,
{"id": "129",
    "name":"Cukrowicz NAchbaur Architekten etc.",
    "type":"arch",
    "country":"AT",
    "city":"Bregenz",
    "lon":9.7472924,
    "lat":47.5025779,
    "order":129,
    "projects":[16]
              }
,
{"id": "130",
    "name":"Cushing Civil Engineers",
    "type":"eng",
    "country":"US",
    "city":"Portland",
    "lon":-122.674194,
    "lat":45.5202471,
    "order":130,
    "projects":[108]
              }
,
{"id": "131",
    "name":"Dachtler Partner AG Architekten",
    "type":"arch",
    "country":"CH",
    "city":"Zurich",
    "lon":8.5410422,
    "lat":47.3744489,
    "order":131,
    "projects":[79]
              }
,
{"id": "132",
    "name":"David Miller Architects",
    "type":"arch",
    "country":"GB",
    "city":"London",
    "lon":-0.1276474,
    "lat":51.5073219,
    "order":132,
    "projects":[90]
              }
,
{"id": "133",
    "name":"de Architekten Cie. B.V.",
    "type":"arch",
    "country":"NL",
    "city":"Amsterdam",
    "lon":4.8936041,
    "lat":52.3727598,
    "order":133,
    "projects":[158]
              }
,
{"id": "134",
    "name":"dedato ontwerpers en architecten",
    "type":"arch",
    "country":"NL",
    "city":"Amsterdam",
    "lon":4.8936041,
    "lat":52.3727598,
    "order":134,
    "projects":[82]
              }
,
{"id": "135",
    "name":"Deerns",
    "type":"eng",
    "country":"NL",
    "city":"The Hague",
    "lon":4.3113461,
    "lat":52.0799838,
    "order":135,
    "projects":[245]
              }
,
{"id": "136",
    "name":"Degree of Freedom",
    "type":"eng",
    "country":"NO",
    "city":"Oslo",
    "lon":10.7389701,
    "lat":59.9133301,
    "order":136,
    "projects":[209]
              }
,
{"id": "137",
    "name":"Deimel Oelschläger Architektenpartnerschaf",
    "type":"arch",
    "country":"DE",
    "city":"Berlin",
    "lon":13.3888599,
    "lat":52.5170365,
    "order":137,
    "projects":[275]
              }
,
{"id": "138",
    "name":"Demathieu Bard",
    "type":"eng",
    "country":"FR",
    "city":"Metz",
    "lon":6.1763552,
    "lat":49.1196964,
    "order":138,
    "projects":[225]
              }
,
{"id": "139",
    "name":"Deppisch Architekten GmbH",
    "type":"arch",
    "country":"DE",
    "city":"Freising",
    "lon":11.7439565,
    "lat":48.4008273,
    "order":139,
    "projects":[59,68]
              }
,
{"id": "140",
    "name":"DGMR",
    "type":"eng",
    "country":"NL",
    "city":"Arnhem",
    "lon":5.9108573,
    "lat":51.984257,
    "order":140,
    "projects":[245]
              }
,
{"id": "141",
    "name":"Dietrich Untertrifaller Architekten",
    "type":"arch",
    "country":"AT",
    "city":"Bregenz",
    "lon":9.7472924,
    "lat":47.5025779,
    "order":141,
    "projects":[9]
              }
,
{"id": "142",
    "name":"Dipl. Ing. Jochen Schöne Architekt",
    "type":"arch",
    "country":"DE",
    "city":"Neustadt an der Weinstraße",
    "lon":8.1350021,
    "lat":49.3539802,
    "order":142,
    "projects":[113]
              }
,
{"id": "143",
    "name":"Dipl.-Ing. Alfred R. Brunnsteiner",
    "type":"eng",
    "country":"AT",
    "city":"Natters",
    "lon":11.3737585,
    "lat":47.2336947,
    "order":143,
    "projects":[105]
              }
,
{"id": "144",
    "name":"Dipl.-Ing. Peter Wittig – Ingenieurbüro Berlin",
    "type":"eng",
    "country":"DE",
    "city":"Berlin",
    "lon":13.3888599,
    "lat":52.5170365,
    "order":144,
    "projects":[24]
              }
,
{"id": "145",
    "name":"DLR Group",
    "type":"arch",
    "country":"US",
    "city":"Omaha",
    "lon":-95.9383758,
    "lat":41.2587459,
    "order":145,
    "projects":[145,242]
              }
,
{"id": "146",
    "name":"DOF engineers",
    "type":"eng",
    "country":"NO",
    "city":"Oslo",
    "lon":10.7389701,
    "lat":59.9133301,
    "order":146,
    "projects":[277]
              }
,
{"id": "147",
    "name":"Dr. J. Grob & Partner AG",
    "type":"eng",
    "country":"CH",
    "city":"Winterthur",
    "lon":8.7291498,
    "lat":47.4991723,
    "order":147,
    "projects":[195]
              }
,
{"id": "148",
    "name":"Dr. Lüchinger+Meyer Bauingenieure AG",
    "type":"eng",
    "country":"CH",
    "city":"Zurich",
    "lon":8.5410422,
    "lat":47.3744489,
    "order":148,
    "projects":[72,228]
              }
,
{"id": "149",
    "name":"dRMM",
    "type":"arch",
    "country":"GB",
    "city":"London",
    "lon":-0.1276474,
    "lat":51.5073219,
    "order":149,
    "projects":[93,120,127]
              }
,
{"id": "150",
    "name":"Dunning Thornton consultants",
    "type":"eng",
    "country":"NZ",
    "city":"Wellington",
    "lon":174.7772114,
    "lat":-41.2887953,
    "order":150,
    "projects":[51]
              }
,
{"id": "151",
    "name":"EBP Schweiz AG",
    "type":"eng",
    "country":"CH",
    "city":"Zurich",
    "lon":8.5410422,
    "lat":47.3744489,
    "order":151,
    "projects":[111]
              }
,
{"id": "152",
    "name":"Ecoedil SA",
    "type":"arch",
    "country":"CH",
    "city":"Lugano",
    "lon":8.9520281,
    "lat":46.0050102,
    "order":152,
    "projects":[50]
              }
,
{"id": "153",
    "name":"Egoin",
    "type":"fab",
    "country":"ES",
    "city":"Bilbao",
    "lon":-2.9350039,
    "lat":43.2630018,
    "order":153,
    "projects":[134,256]
              }
,
{"id": "154",
    "name":"einszueins architektur",
    "type":"arch",
    "country":"AT",
    "city":"Vienna",
    "lon":16.3725042,
    "lat":48.2083537,
    "order":154,
    "projects":[219,221]
              }
,
{"id": "155",
    "name":"EkoFLin",
    "type":"fab",
    "country":"NL",
    "city":"Bavel",
    "lon":4.8296995,
    "lat":51.5656819,
    "order":155,
    "projects":[216]
              }
,
{"id": "156",
    "name":"Elementti Sampo Oy",
    "type":"fab",
    "country":"FI",
    "city":"Kuhmo",
    "lon":29.519515,
    "lat":64.1261745,
    "order":156,
    "projects":[295]
              }
,
{"id": "157",
    "name":"Elliott Wood",
    "type":"eng",
    "country":"GB",
    "city":"London",
    "lon":-0.1276474,
    "lat":51.5073219,
    "order":157,
    "projects":[194]
              }
,
{"id": "158",
    "name":"Emberger & Essl GmbH",
    "type":"fab",
    "country":"AT",
    "city":"Mondsee",
    "lon":13.3500658,
    "lat":47.8560014,
    "order":158,
    "projects":[83]
              }
,
{"id": "159",
    "name":"Emch+Berger",
    "type":"eng",
    "country":"CH",
    "city":"Bern",
    "lon":7.4514512,
    "lat":46.9482713,
    "order":159,
    "projects":[119]
              }
,
{"id": "160",
    "name":"Engberg Anderson Architects",
    "type":"arch",
    "country":"US",
    "city":"Milwaukee",
    "lon":-87.922497,
    "lat":43.0349931,
    "order":160,
    "projects":[283]
              }
,
{"id": "161",
    "name":"Engenuiti",
    "type":"eng",
    "country":"GB",
    "city":"London",
    "lon":-0.1276474,
    "lat":51.5073219,
    "order":161,
    "projects":[44,104,130,135]
              }
,
{"id": "162",
    "name":"engenuity",
    "type":"eng",
    "country":"GB",
    "city":"Burgess Hill",
    "lon":-0.1332853,
    "lat":50.9575365,
    "order":162,
    "projects":[143]
              }
,
{"id": "163",
    "name":"Equilibrium Consulting",
    "type":"eng",
    "country":"CA",
    "city":"Vancouver",
    "lon":-123.113952,
    "lat":49.2608724,
    "order":163,
    "projects":[52,100,101,206,281]
              }
,
{"id": "164",
    "name":"ERNE AG Holzbau",
    "type":"fab",
    "country":"CH",
    "city":"Laufenburg",
    "lon":8.0601696,
    "lat":47.5604617,
    "order":164,
    "projects":[18,196,223]
              }
,
{"id": "165",
    "name":"Eurban",
    "type":"fab",
    "country":"GB",
    "city":"London",
    "lon":-0.1276474,
    "lat":51.5073219,
    "order":165,
    "projects":[6,20,30,60,92,103,124,127,150,155,182]
              }
,
{"id": "166",
    "name":"f2a architecture",
    "type":"arch",
    "country":"CA",
    "city":"Penticton",
    "lon":-119.5932499,
    "lat":49.5003268,
    "order":166,
    "projects":[265]
              }
,
{"id": "167",
    "name":"Fast + Epp",
    "type":"eng",
    "country":"CA",
    "city":"Vancouver",
    "lon":-123.113952,
    "lat":49.2608724,
    "order":167,
    "projects":[31,110,171,265]
              }
,
{"id": "168",
    "name":"fd engineers",
    "type":"eng",
    "country":"AU",
    "city":"Labrador",
    "lon":153.400821698302,
    "lat":-27.945764,
    "order":168,
    "projects":[276]
              }
,
{"id": "169",
    "name":"Feilden Clegg Bradley Studios",
    "type":"arch",
    "country":"GB",
    "city":"London",
    "lon":-0.1276474,
    "lat":51.5073219,
    "order":169,
    "projects":[28,99]
              }
,
{"id": "170",
    "name":"feld72 Architekten ZT GmbH",
    "type":"arch",
    "country":"AT",
    "city":"Vienna",
    "lon":16.3725042,
    "lat":48.2083537,
    "order":170,
    "projects":[230]
              }
,
{"id": "171",
    "name":"FGP Construction",
    "type":"fab",
    "country":"CA",
    "city":"Saint-Basile-le-Grand",
    "lon":-73.2876515,
    "lat":45.526246,
    "order":171,
    "projects":[236]
              }
,
{"id": "172",
    "name":"Fink Thurnher",
    "type":"arch",
    "country":"AT",
    "city":"Bregenz",
    "lon":9.7472924,
    "lat":47.5025779,
    "order":172,
    "projects":[29]
              }
,
{"id": "173",
    "name":"Finnforest Merk",
    "type":"fab",
    "country":"DE",
    "city":"Aichach",
    "lon":11.1309953,
    "lat":48.4591478,
    "order":173,
    "projects":[40]
              }
,
{"id": "174",
    "name":"Fischer und Leisering Ingenieurgesellschaft mbH",
    "type":"eng",
    "country":"DE",
    "city":"Konstanz",
    "lon":9.1750718,
    "lat":47.659216,
    "order":174,
    "projects":[159]
              }
,
{"id": "175",
    "name":"Flank",
    "type":"arch",
    "country":"US",
    "city":"New York",
    "lon":-74.0060152,
    "lat":40.7127281,
    "order":175,
    "projects":[203]
              }
,
{"id": "176",
    "name":"Florian Kosche",
    "type":"eng",
    "country":"NO",
    "city":"Oslo",
    "lon":10.7389701,
    "lat":59.9133301,
    "order":176,
    "projects":[299]
              }
,
{"id": "177",
    "name":"Florian Nagler Architekten",
    "type":"arch",
    "country":"DE",
    "city":"Munich",
    "lon":11.5753822,
    "lat":48.1371079,
    "order":177,
    "projects":[88,117,148]
              }
,
{"id": "178",
    "name":"Fojab Arkitekter",
    "type":"arch",
    "country":"SE",
    "city":"Malmö",
    "lon":13.0001566,
    "lat":55.6052931,
    "order":178,
    "projects":[246]
              }
,
{"id": "179",
    "name":"Fokkema & Partners",
    "type":"arch",
    "country":"NL",
    "city":"Delft",
    "lon":4.362724538543995,
    "lat":51.999457199999995,
    "order":179,
    "projects":[143,158]
              }
,
{"id": "180",
    "name":"Folkhem",
    "type":"fab",
    "country":"SE",
    "city":"Stockholm",
    "lon":18.0710935,
    "lat":59.3251172,
    "order":180,
    "projects":[213]
              }
,
{"id": "181",
    "name":"FRANTZEN et al architecten",
    "type":"arch",
    "country":"NL",
    "city":"Amsterdam",
    "lon":4.8936041,
    "lat":52.3727598,
    "order":181,
    "projects":[142]
              }
,
{"id": "182",
    "name":"Fristad bygg",
    "type":"fab",
    "country":"SE",
    "city":"Fristad",
    "lon":13.0100197,
    "lat":57.8238811,
    "order":182,
    "projects":[180,268]
              }
,
{"id": "183",
    "name":"Fritz Holzbau",
    "type":"fab",
    "country":"AT",
    "city":"Bartholomäberg",
    "lon":9.914799727494259,
    "lat":47.10672425,
    "order":183,
    "projects":[14]
              }
,
{"id": "184",
    "name":"Frommelt Zimmerei und Ing. Holzbau AG",
    "type":"fab",
    "country":"LI",
    "city":"Schaan",
    "lon":9.510312,
    "lat":47.1663397,
    "order":184,
    "projects":[32]
              }
,
{"id": "185",
    "name":"frundgallina sa",
    "type":"arch",
    "country":"CH",
    "city":"Neuchâtel",
    "lon":6.9292641,
    "lat":46.9895828,
    "order":185,
    "projects":[63]
              }
,
{"id": "186",
    "name":"Funk + Partner AG",
    "type":"eng",
    "country":"CH",
    "city":"Urdorf",
    "lon":8.4259004,
    "lat":47.384708,
    "order":186,
    "projects":[126]
              }
,
{"id": "187",
    "name":"Fussenegger Holzbau GmbH",
    "type":"fab",
    "country":"AT",
    "city":"Dornbirn",
    "lon":9.7423875,
    "lat":47.413631,
    "order":187,
    "projects":[4,126]
              }
,
{"id": "188",
    "name":"Futurafrosch – Architektur und Raumentwicklung GmbH",
    "type":"arch",
    "country":"CH",
    "city":"Zurich",
    "lon":8.5410422,
    "lat":47.3744489,
    "order":188,
    "projects":[111]
              }
,
{"id": "189",
    "name":"Gaille Construction SA",
    "type":"fab",
    "country":"CH",
    "city":"Fresens",
    "lon":6.747402,
    "lat":46.8883144,
    "order":189,
    "projects":[63,63]
              }
,
{"id": "190",
    "name":"Galli Rudolf Architekten AG ETH BSA",
    "type":"arch",
    "country":"CH",
    "city":"Zurich",
    "lon":8.5410422,
    "lat":47.3744489,
    "order":190,
    "projects":[57]
              }
,
{"id": "191",
    "name":"Gaujard Technologie Scop",
    "type":"eng",
    "country":"FR",
    "city":"Avignon",
    "lon":4.8059012,
    "lat":43.9492493,
    "order":191,
    "projects":[58,74]
              }
,
{"id": "192",
    "name":"Geo Viviani",
    "type":"eng",
    "country":"CH",
    "city":"Lugano",
    "lon":8.9520281,
    "lat":46.0050102,
    "order":192,
    "projects":[50]
              }
,
{"id": "193",
    "name":"GG-loop",
    "type":"arch",
    "country":"NL",
    "city":"Amsterdam",
    "lon":4.8936041,
    "lat":52.3727598,
    "order":193,
    "projects":[216]
              }
,
{"id": "194",
    "name":"GROSSMANN Bau GmbH & Co. KG",
    "type":"fab",
    "country":"DE",
    "city":"Rosenheim",
    "lon":12.127262,
    "lat":47.8539273,
    "order":194,
    "projects":[59]
              }
,
{"id": "195",
    "name":"Groupe Briand",
    "type":"fab",
    "country":"FR",
    "city":"Les Herbiers",
    "lon":-1.0150302,
    "lat":46.8714322,
    "order":195,
    "projects":[165]
              }
,
{"id": "196",
    "name":"Groupwork + Amin Taha",
    "type":"arch",
    "country":"GB",
    "city":"London",
    "lon":-0.1276474,
    "lat":51.5073219,
    "order":196,
    "projects":[134]
              }
,
{"id": "197",
    "name":"Gruner AG",
    "type":"eng",
    "country":"CH",
    "city":"Basel",
    "lon":7.5878261,
    "lat":47.5581077,
    "order":197,
    "projects":[118]
              }
,
{"id": "198",
    "name":"Gschwandtl & Lindlbauer ZT GmbH",
    "type":"eng",
    "country":"AT",
    "city":"Vienna",
    "lon":16.3725042,
    "lat":48.2083537,
    "order":198,
    "projects":[221]
              }
,
{"id": "199",
    "name":"GVH-Ingenieurs Civils SA",
    "type":"eng",
    "country":"CH",
    "city":"La Chaux-de-Fonds",
    "lon":6.8325778,
    "lat":47.1031321,
    "order":199,
    "projects":[63]
              }
,
{"id": "200",
    "name":"H2R Architekten und Stadtplaner BDA",
    "type":"arch",
    "country":"DE",
    "city":"Munich",
    "lon":11.5753822,
    "lat":48.1371079,
    "order":200,
    "projects":[247]
              }
,
{"id": "201",
    "name":"Haag + Partner AG",
    "type":"eng",
    "country":"CH",
    "city":"Küsnacht",
    "lon":8.5830859,
    "lat":47.3176276,
    "order":201,
    "projects":[153]
              }
,
{"id": "202",
    "name":"Hacker Architects",
    "type":"arch",
    "country":"US",
    "city":"Oregon",
    "lon":-122.670649,
    "lat":45.4206749,
    "order":202,
    "projects":[263]
              }
,
{"id": "203",
    "name":"Hagmüller Architekten ZT GmbH",
    "type":"arch",
    "country":"AT",
    "city":"Vienna",
    "lon":16.3725042,
    "lat":48.2083537,
    "order":203,
    "projects":[76]
              }
,
{"id": "204",
    "name":"Hämmerle – Huster",
    "type":"eng",
    "country":"AT",
    "city":"Bregenz",
    "lon":9.7472924,
    "lat":47.5025779,
    "order":204,
    "projects":[230]
              }
,
{"id": "205",
    "name":"Handler",
    "type":"fab",
    "country":"AT",
    "city":"Bad Schönau",
    "lon":16.2340758,
    "lat":47.4954307,
    "order":205,
    "projects":[183]
              }
,
{"id": "206",
    "name":"Hansen Architects",
    "type":"arch",
    "country":"US",
    "city":"Georgia ",
    "lon":-73.14704151731551,
    "lat":44.72422295,
    "order":206,
    "projects":[203]
              }
,
{"id": "207",
    "name":"Haselmeier Holzbau",
    "type":"fab",
    "country":"DE",
    "city":"Erligheim",
    "lon":9.0987129,
    "lat":49.0199816,
    "order":207,
    "projects":[87]
              }
,
{"id": "208",
    "name":"Hauenstein La Roche Schedler Architekten AG",
    "type":"arch",
    "country":"CH",
    "city":"Zurich",
    "lon":8.5410422,
    "lat":47.3744489,
    "order":208,
    "projects":[39]
              }
,
{"id": "209",
    "name":"Häussler Ingenieure",
    "type":"eng",
    "country":"DE",
    "city":"Kempten",
    "lon":10.3168835,
    "lat":47.7267063,
    "order":209,
    "projects":[229]
              }
,
{"id": "210",
    "name":"Hawkins/Brown",
    "type":"arch",
    "country":"GB",
    "city":"London",
    "lon":-0.1276474,
    "lat":51.5073219,
    "order":210,
    "projects":[44,130]
              }
,
{"id": "211",
    "name":"Hecht Holzbau AG",
    "type":"fab",
    "country":"CH",
    "city":"Sursee",
    "lon":8.1089654,
    "lat":47.1740371,
    "order":211,
    "projects":[126]
              }
,
{"id": "212",
    "name":"Hector Egger Holzbau",
    "type":"fab",
    "country":"CH",
    "city":"Langenthal",
    "lon":7.788786,
    "lat":47.2116019,
    "order":212,
    "projects":[39,49,72,210]
              }
,
{"id": "213",
    "name":"Helen & Hard",
    "type":"arch",
    "country":"NO",
    "city":"Oslo",
    "lon":10.7389701,
    "lat":59.9133301,
    "order":213,
    "projects":[93,123,209,277]
              }
,
{"id": "214",
    "name":"Helmut Fischer",
    "type":"eng",
    "country":"DE",
    "city":"Bad Endorf",
    "lon":12.3013697,
    "lat":47.906411,
    "order":214,
    "projects":[36]
              }
,
{"id": "215",
    "name":"Henauer Gugler AG",
    "type":"eng",
    "country":"CH",
    "city":"Zurich",
    "lon":8.5410422,
    "lat":47.3744489,
    "order":215,
    "projects":[27,79]
              }
,
{"id": "216",
    "name":"Hennike + Dr. Kusch",
    "type":"eng",
    "country":"DE",
    "city":"Weimar",
    "lon":11.3296637,
    "lat":50.9810486,
    "order":216,
    "projects":[45]
              }
,
{"id": "217",
    "name":"Hermann Kaufmann + Partner ZT GmbH",
    "type":"arch",
    "country":"DE",
    "city":"Schwarzach",
    "lon":12.8132695,
    "lat":48.9152375,
    "order":217,
    "projects":[8,38,46,61,117,171]
              }
,
{"id": "218",
    "name":"Heupel GmbH",
    "type":"arch",
    "country":"DE",
    "city":"Munich",
    "lon":11.5753822,
    "lat":48.1371079,
    "order":218,
    "projects":[137]
              }
,
{"id": "219",
    "name":"Heyne Tillett Steel",
    "type":"eng",
    "country":"GB",
    "city":"London",
    "lon":-0.1276474,
    "lat":51.5073219,
    "order":219,
    "projects":[187]
              }
,
{"id": "220",
    "name":"HILLEN & ROOSEN",
    "type":"fab",
    "country":"NL",
    "city":"Amsterdam",
    "lon":4.8936041,
    "lat":52.3727598,
    "order":220,
    "projects":[142]
              }
,
{"id": "221",
    "name":"Hirschmuellerschmidt Architektur GmbH",
    "type":"arch",
    "country":"DE",
    "city":"Darmstadt",
    "lon":8.6736295,
    "lat":49.8851869,
    "order":221,
    "projects":[173]
              }
,
{"id": "222",
    "name":"Hochdorf Bisang Holzbau AG",
    "type":"fab",
    "country":"CH",
    "city":"Küssnacht",
    "lon":8.4386308,
    "lat":47.08385,
    "order":222,
    "projects":[126]
              }
,
{"id": "223",
    "name":"Hodder + Partners",
    "type":"arch",
    "country":"GB",
    "city":"Manchester",
    "lon":-2.2451148,
    "lat":53.4794892,
    "order":223,
    "projects":[124]
              }
,
{"id": "224",
    "name":"Hoffmannfontana Architekturen gmbh",
    "type":"arch",
    "country":"CH",
    "city":"Zurich",
    "lon":8.5410422,
    "lat":47.3744489,
    "order":224,
    "projects":[197]
              }
,
{"id": "225",
    "name":"Holzbau AG",
    "type":"eng",
    "country":"CH",
    "city":"Mörel",
    "lon":8.0443575,
    "lat":46.3551161,
    "order":225,
    "projects":[118]
              }
,
{"id": "226",
    "name":"Holzbau Gehrmann GmbH",
    "type":"fab",
    "country":"DE",
    "city":"Hoisdorf",
    "lon":10.3186485,
    "lat":53.6530061,
    "order":226,
    "projects":[202]
              }
,
{"id": "227",
    "name":"Holzbau Moser",
    "type":"fab",
    "country":"DE",
    "city":"Salach",
    "lon":9.7395144,
    "lat":48.6904085,
    "order":227,
    "projects":[293]
              }
,
{"id": "228",
    "name":"Holzbau Saurer GmbH & Co KG",
    "type":"fab",
    "country":"AT",
    "city":"Höfen",
    "lon":10.662970765696295,
    "lat":47.466749300000004,
    "order":228,
    "projects":[105]
              }
,
{"id": "229",
    "name":"Holzbautechnik Burch AG",
    "type":"fab",
    "country":"CH",
    "city":"Sarnen",
    "lon":8.2461492,
    "lat":46.8956729,
    "order":229,
    "projects":[250,251]
              }
,
{"id": "230",
    "name":"Holzbox Tirol",
    "type":"arch",
    "country":"AT",
    "city":"Innsbruck",
    "lon":11.3927685,
    "lat":47.2654296,
    "order":230,
    "projects":[2]
              }
,
{"id": "231",
    "name":"Holzunion",
    "type":"fab",
    "country":"DE",
    "city":"Rotenburg ",
    "lon":9.4049292,
    "lat":53.1108906,
    "order":231,
    "projects":[173,229]
              }
,
{"id": "232",
    "name":"Horden Cherry Lee Architects",
    "type":"arch",
    "country":"GB",
    "city":"London",
    "lon":-0.1276474,
    "lat":51.5073219,
    "order":232,
    "projects":[89]
              }
,
{"id": "233",
    "name":"HPA",
    "type":"arch",
    "country":"US",
    "city":"Chicago",
    "lon":-87.6244212,
    "lat":41.8755616,
    "order":233,
    "projects":[242]
              }
,
{"id": "234",
    "name":"Huber & Sohn GmbH & Co. KG",
    "type":"fab",
    "country":"DE",
    "city":"Eiselfing",
    "lon":12.2417391,
    "lat":48.0404763,
    "order":234,
    "projects":[22,33,247]
              }
,
{"id": "235",
    "name":"Hubert Riess",
    "type":"arch",
    "country":"AT",
    "city":"Graz",
    "lon":15.4382786,
    "lat":47.0708678,
    "order":235,
    "projects":[3]
              }
,
{"id": "236",
    "name":"HUS arkitekter AS",
    "type":"arch",
    "country":"NO",
    "city":"Trondheim",
    "lon":10.3952118,
    "lat":63.4304475,
    "order":236,
    "projects":[193]
              }
,
{"id": "237",
    "name":"Hyder Consulting Ltd",
    "type":"eng",
    "country":"GB",
    "city":"London",
    "lon":-0.1276474,
    "lat":51.5073219,
    "order":237,
    "projects":[139]
              }
,
{"id": "238",
    "name":"i+R Holzbau GmbH",
    "type":"fab",
    "country":"AT",
    "city":"Lauterach",
    "lon":9.7313331,
    "lat":47.4747262,
    "order":238,
    "projects":[8]
              }
,
{"id": "239",
    "name":"i3+STUDIO di Boranga De Col Canal Ingegneri associati",
    "type":"fab",
    "country":"IT",
    "city":"Belluno",
    "lon":12.2181711,
    "lat":46.1375185,
    "order":239,
    "projects":[66]
              }
,
{"id": "240",
    "name":"IFB Frohloff Staffa Kühl Ecker",
    "type":"eng",
    "country":"DE",
    "city":"Berlin",
    "lon":13.3888599,
    "lat":52.5170365,
    "order":240,
    "projects":[40,184,214,267]
              }
,
{"id": "241",
    "name":"Ilbelings van Tilbug Architecten",
    "type":"arch",
    "country":"NL",
    "city":"Den Haag",
    "lon":4.3113461,
    "lat":52.0799838,
    "order":241,
    "projects":[42]
              }
,
{"id": "242",
    "name":"Implenia Schweiz AG",
    "type":"fab",
    "country":"CH",
    "city":"Rümlang",
    "lon":8.5299122,
    "lat":47.4507163,
    "order":242,
    "projects":[57,118,195]
              }
,
{"id": "243",
    "name":"Indermühle Bauingenieure GmbH",
    "type":"eng",
    "country":"CH",
    "city":"Thun",
    "lon":7.628086,
    "lat":46.7582827,
    "order":243,
    "projects":[57,151,210]
              }
,
{"id": "244",
    "name":"ing. Iztok Smotlak",
    "type":"eng",
    "country":"IT",
    "city":"Trieste",
    "lon":13.7772781,
    "lat":45.6496485,
    "order":244,
    "projects":[66]
              }
,
{"id": "245",
    "name":"Ingébois",
    "type":"eng",
    "country":"FR",
    "city":"Douai",
    "lon":3.0804641,
    "lat":50.3675677,
    "order":245,
    "projects":[198]
              }
,
{"id": "246",
    "name":"Ingénierie Bois",
    "type":"eng",
    "country":"FR",
    "city":"Bischheim",
    "lon":7.7523716,
    "lat":48.6148396,
    "order":246,
    "projects":[96,186]
              }
,
{"id": "247",
    "name":"Ingenieurbüro Franz Mitterer-Mang",
    "type":"eng",
    "country":"DE",
    "city":"Waldkraiburg",
    "lon":12.4044209,
    "lat":48.2058812,
    "order":247,
    "projects":[148]
              }
,
{"id": "248",
    "name":"Ingenieurbüro Heinrichs",
    "type":"eng",
    "country":"DE",
    "city":"Cologne",
    "lon":6.959974,
    "lat":50.938361,
    "order":248,
    "projects":[223]
              }
,
{"id": "249",
    "name":"Ingenieurbüro von Fragstein GmbH",
    "type":"eng",
    "country":"DE",
    "city":"Landau",
    "lon":8.1123441,
    "lat":49.1982825,
    "order":249,
    "projects":[113]
              }
,
{"id": "250",
    "name":"Ingenieurbüro BE Ingenieure GmbH ",
    "type":"eng",
    "country":"DE",
    "city":"Karlsruhe",
    "lon":8.4034195,
    "lat":49.0068705,
    "order":250,
    "projects":[293]
              }
,
{"id": "251",
    "name":"InnoRenew CoE",
    "type":"arch",
    "country":"SI",
    "city":"Izola",
    "lon":13.65939,
    "lat":45.5398936,
    "order":251,
    "projects":[297]
              }
,
{"id": "252",
    "name":"Insinööritoimisto Pertti Ruuskanen Oy",
    "type":"eng",
    "country":"FI",
    "city":"Jyväskylä",
    "lon":25.7458236,
    "lat":62.2393431,
    "order":252,
    "projects":[64]
              }
,
{"id": "253",
    "name":"Integra",
    "type":"eng",
    "country":"SE",
    "city":"Trollhattan",
    "lon":12.2908612,
    "lat":58.2827931,
    "order":253,
    "projects":[170]
              }
,
{"id": "254",
    "name":"iTRE",
    "type":"fab",
    "country":"NO",
    "city":"Grålum",
    "lon":11.0667001,
    "lat":59.2904945,
    "order":254,
    "projects":[123,125]
              }
,
{"id": "255",
    "name":"Jackson Clements Burrows Architects",
    "type":"arch",
    "country":"AU",
    "city":"Richmond",
    "lon":145.0025153,
    "lat":-37.8203955,
    "order":255,
    "projects":[220,272]
              }
,
{"id": "256",
    "name":"Jäggi + Hafter AG Holzbau",
    "type":"fab",
    "country":"CH",
    "city":"Regensdorf",
    "lon":8.4680435,
    "lat":47.4317645,
    "order":256,
    "projects":[79]
              }
,
{"id": "257",
    "name":"Jan Wiese Architekten",
    "type":"arch",
    "country":"DE",
    "city":"Berlin",
    "lon":13.3888599,
    "lat":52.5170365,
    "order":257,
    "projects":[276]
              }
,
{"id": "258",
    "name":"Jasmax",
    "type":"arch",
    "country":"NZ",
    "city":"Auckland",
    "lon":174.7631803,
    "lat":-36.852095,
    "order":258,
    "projects":[154]
              }
,
{"id": "259",
    "name":"Jean-Paul Viguier",
    "type":"arch",
    "country":"FR",
    "city":"Paris",
    "lon":2.3200410217200766,
    "lat":48.8588897,
    "order":259,
    "projects":[62,225,296,290]
              }
,
{"id": "260",
    "name":"Jenkins & Potter",
    "type":"eng",
    "country":"GB",
    "city":"London",
    "lon":-0.1276474,
    "lat":51.5073219,
    "order":260,
    "projects":[21]
              }
,
{"id": "261",
    "name":"Jestico + Whiles",
    "type":"arch",
    "country":"GB",
    "city":"London",
    "lon":-0.1276474,
    "lat":51.5073219,
    "order":261,
    "projects":[92]
              }
,
{"id": "262",
    "name":"Johannes Kaufmann Architektur",
    "type":"arch",
    "country":"AT",
    "city":"Dornbirn",
    "lon":9.7423875,
    "lat":47.413631,
    "order":262,
    "projects":[4,8,147,161]
              }
,
{"id": "263",
    "name":"Josef Kolb AG",
    "type":"eng",
    "country":"CH",
    "city":"Romanshorn",
    "lon":9.3776036,
    "lat":47.5654452,
    "order":263,
    "projects":[163,279]
              }
,
{"id": "264",
    "name":"JPF-DUCRET SA",
    "type":"fab",
    "country":"CH",
    "city":"Bulle",
    "lon":7.0581152,
    "lat":46.6190969,
    "order":264,
    "projects":[207]
              }
,
{"id": "265",
    "name":"JR Consult",
    "type":"eng",
    "country":"AT",
    "city":"Graz",
    "lon":15.4382786,
    "lat":47.0708678,
    "order":265,
    "projects":[3]
              }
,
{"id": "266",
    "name":"JTB.Architecture",
    "type":"arch",
    "country":"FR",
    "city":"Paris",
    "lon":2.3200410217200766,
    "lat":48.8588897,
    "order":266,
    "projects":[121]
              }
,
{"id": "267",
    "name":"Kaden + Lager",
    "type":"arch",
    "country":"DE",
    "city":"Berlin",
    "lon":13.3888599,
    "lat":52.5170365,
    "order":267,
    "projects":[12,56,215,240,285]
              }
,
{"id": "268",
    "name":"Kai Vater Zimmerei und Holzbau GmbH & Co. KG",
    "type":"fab",
    "country":"DE",
    "city":"Wittenberg",
    "lon":12.646761,
    "lat":51.8666527,
    "order":268,
    "projects":[276]
              }
,
{"id": "269",
    "name":"Kämpfen Zinke + Partner AG",
    "type":"arch",
    "country":"CH",
    "city":"Zurich",
    "lon":8.5410422,
    "lat":47.3744489,
    "order":269,
    "projects":[49]
              }
,
{"id": "270",
    "name":"Karakusevic Carson Architects",
    "type":"arch",
    "country":"GB",
    "city":"London",
    "lon":-0.1276474,
    "lat":51.5073219,
    "order":270,
    "projects":[30,155]
              }
,
{"id": "271",
    "name":"Katerra",
    "type":"arch",
    "country":"US",
    "city":"Menlo Park",
    "lon":-122.1779927,
    "lat":37.4519671,
    "order":271,
    "projects":[262]
              }
,
{"id": "272",
    "name":"Kaufmann Bausysteme",
    "type":"fab",
    "country":"AT",
    "city":"Reuthe",
    "lon":9.865113764594176,
    "lat":47.372217199999994,
    "order":272,
    "projects":[35,163,224]
              }
,
{"id": "273",
    "name":"Kaufmann Zimmerei und Tischlerei GmbH",
    "type":"fab",
    "country":"AT",
    "city":"Reuthe",
    "lon":9.865113764594176,
    "lat":47.372217199999994,
    "order":273,
    "projects":[17,161]
              }
,
{"id": "274",
    "name":"KAZUYA SAITO ARCHITECTS",
    "type":"arch",
    "country":"JP",
    "city":"Miyagi",
    "lon":139.838919,
    "lat":34.9803071,
    "order":274,
    "projects":[70]
              }
,
{"id": "275",
    "name":"KIFA AG",
    "type":"fab",
    "country":"CH",
    "city":"Aadorf",
    "lon":8.9029526,
    "lat":47.4915782,
    "order":275,
    "projects":[197]
              }
,
{"id": "276",
    "name":"KL&A Engineers & Builders",
    "type":"eng",
    "country":"US",
    "city":"Colorado ",
    "lon":-104.8769227,
    "lat":39.579155,
    "order":276,
    "projects":[236]
              }
,
{"id": "277",
    "name":"KLH MASSIVHOLZ GMBH",
    "type":"fab",
    "country":"AT",
    "city":"Teufenbach",
    "lon":14.3598712,
    "lat":47.1309885,
    "order":277,
    "projects":[9,21,23,26,53,89,91,194]
              }
,
{"id": "278",
    "name":"Knecht AG",
    "type":"fab",
    "country":"CH",
    "city":"Oberwil",
    "lon":7.5527853,
    "lat":47.5136942,
    "order":278,
    "projects":[57]
              }
,
{"id": "279",
    "name":"Kodumaja",
    "type":"eng",
    "country":"EE",
    "city":"Tartu ",
    "lon":26.72245,
    "lat":58.3801207,
    "order":279,
    "projects":[167]
              }
,
{"id": "280",
    "name":"kofler architects",
    "type":"arch",
    "country":"AT",
    "city":"Salzburg",
    "lon":13.0464806,
    "lat":47.7981346,
    "order":280,
    "projects":[274]
              }
,
{"id": "281",
    "name":"Konishi Structural Engineers",
    "type":"eng",
    "country":"JP",
    "city":"Musashino ",
    "lon":139.563534,
    "lat":35.712898,
    "order":281,
    "projects":[70]
              }
,
{"id": "282",
    "name":"KOOIJ & DEKKER Ingenieursbureau BV",
    "type":"eng",
    "country":"NL",
    "city":"Harderwijk",
    "lon":5.640271521392062,
    "lat":52.33599915,
    "order":282,
    "projects":[82]
              }
,
{"id": "283",
    "name":"Koz Architectes",
    "type":"arch",
    "country":"FR",
    "city":"Paris",
    "lon":2.3200410217200766,
    "lat":48.8588897,
    "order":283,
    "projects":[186]
              }
,
{"id": "284",
    "name":"KPFF Consulting Engineers",
    "type":"eng",
    "country":"US",
    "city":"Seattle",
    "lon":-122.330062,
    "lat":47.6038321,
    "order":284,
    "projects":[132,258,263]
              }
,
{"id": "285",
    "name":"Kubik3 S.L",
    "type":"eng",
    "country":"ES",
    "city":"Barcelona",
    "lon":2.1774322,
    "lat":41.3828939,
    "order":285,
    "projects":[81]
              }
,
{"id": "286",
    "name":"Kulmer Holz-Leimbau GesmbH",
    "type":"fab",
    "country":"AT",
    "city":"Pischelsdorf am Kulm",
    "lon":15.780312855579535,
    "lat":47.186381,
    "order":286,
    "projects":[3,9,115]
              }
,
{"id": "287",
    "name":"L2C Experts-Conseils",
    "type":"eng",
    "country":"CA",
    "city":"Montreal",
    "lon":-73.5698065,
    "lat":45.5031824,
    "order":287,
    "projects":[133]
              }
,
{"id": "288",
    "name":"Lacol",
    "type":"arch",
    "country":"ES",
    "city":"Barcelona",
    "lon":2.1774322,
    "lat":41.3828939,
    "order":288,
    "projects":[190]
              }
,
{"id": "289",
    "name":"Laisné Roussel",
    "type":"arch",
    "country":"FR",
    "city":"Paris",
    "lon":2.3200410217200766,
    "lat":48.8588897,
    "order":289,
    "projects":[212]
              }
,
{"id": "290",
    "name":"Laminated Timber Solutions",
    "type":"fab",
    "country":"BE",
    "city":"Moorslede",
    "lon":3.0732110598481244,
    "lat":50.89008225,
    "order":290,
    "projects":[189]
              }
,
{"id": "291",
    "name":"Laube SA",
    "type":"fab",
    "country":"CH",
    "city":"Biasca",
    "lon":8.9714023,
    "lat":46.3606274,
    "order":291,
    "projects":[11]
              }
,
{"id": "292",
    "name":"Leers Weinzapfel Associates",
    "type":"arch",
    "country":"US",
    "city":"Boston",
    "lon":-71.060511,
    "lat":42.3554334,
    "order":292,
    "projects":[206]
              }
,
{"id": "293",
    "name":"Lemay",
    "type":"arch",
    "country":"CA",
    "city":"Montreal",
    "lon":-73.5698065,
    "lat":45.5031824,
    "order":293,
    "projects":[133,144]
              }
,
{"id": "294",
    "name":"Lendlease DesignMake",
    "type":"eng",
    "country":"AU",
    "city":"Melbourne",
    "lon":144.9631608,
    "lat":-37.8142176,
    "order":294,
    "projects":[43,102,177,139]
              }
,
{"id": "295",
    "name":"Lever Architecture",
    "type":"arch",
    "country":"US",
    "city":"Portland",
    "lon":-122.674194,
    "lat":45.5202471,
    "order":295,
    "projects":[132,234,258]
              }
,
{"id": "296",
    "name":"Lieb Bau Weiz",
    "type":"fab",
    "country":"AT",
    "city":"Weiz",
    "lon":15.6221694,
    "lat":47.2174206,
    "order":296,
    "projects":[259]
              }
,
{"id": "297",
    "name":"LignoAlp",
    "type":"fab",
    "country":"IT",
    "city":"Bressanone",
    "lon":11.657792,
    "lat":46.716413,
    "order":297,
    "projects":[208]
              }
,
{"id": "298",
    "name":"Liljewall arkitekter",
    "type":"arch",
    "country":"SE",
    "city":"Stockholm",
    "lon":18.0710935,
    "lat":59.3251172,
    "order":298,
    "projects":[271]
              }
,
{"id": "299",
    "name":"limbrock tubbesing architekten",
    "type":"arch",
    "country":"DE",
    "city":"Hamburg",
    "lon":10.000654,
    "lat":53.550341,
    "order":299,
    "projects":[202]
              }
,
{"id": "300",
    "name":"Link arkitektur",
    "type":"arch",
    "country":"SE",
    "city":"Falköping",
    "lon":13.516667,
    "lat":58.2,
    "order":300,
    "projects":[288]
              }
,
{"id": "301",
    "name":"LIPSKY+ROLLET Architectes",
    "type":"arch",
    "country":"FR",
    "city":"Paris",
    "lon":2.3200410217200766,
    "lat":48.8588897,
    "order":301,
    "projects":[74]
              }
,
{"id": "302",
    "name":"loeliger strub architektur",
    "type":"arch",
    "country":"CH",
    "city":"Zürich",
    "lon":8.5410422,
    "lat":47.3744489,
    "order":302,
    "projects":[250,251]
              }
,
{"id": "303",
    "name":"Lorenzo Felder Architects",
    "type":"arch",
    "country":"CH",
    "city":"Lugano",
    "lon":8.9520281,
    "lat":46.0050102,
    "order":303,
    "projects":[11]
              }
,
{"id": "304",
    "name":"LP architektur ZT GmbH",
    "type":"arch",
    "country":"AT",
    "city":"Altenmarkt",
    "lon":15.9917879,
    "lat":48.015706,
    "order":304,
    "projects":[83,84,291]
              }
,
{"id": "305",
    "name":"LSI architects",
    "type":"arch",
    "country":"GB",
    "city":"Norwich",
    "lon":1.2923954,
    "lat":52.6285576,
    "order":305,
    "projects":[146]
              }
,
{"id": "306",
    "name":"Luciano Lazzari Architetto",
    "type":"arch",
    "country":"IT",
    "city":"Treviso",
    "lon":12.2455414,
    "lat":45.6658505,
    "order":306,
    "projects":[66]
              }
,
{"id": "307",
    "name":"Luger und Maul",
    "type":"arch",
    "country":"AT",
    "city":"Wels",
    "lon":14.0243752,
    "lat":48.1565472,
    "order":307,
    "projects":[160]
              }
,
{"id": "308",
    "name":"Lund+Slaatto Arkitekter",
    "type":"arch",
    "country":"NO",
    "city":"Oslo",
    "lon":10.7389701,
    "lat":59.9133301,
    "order":308,
    "projects":[200]
              }
,
{"id": "309",
    "name":"M+G INGENIEURE",
    "type":"eng",
    "country":"AT",
    "city":"Feldkirch",
    "lon":9.5981724,
    "lat":47.2375671,
    "order":309,
    "projects":[16,87]
              }
,
{"id": "310",
    "name":"Mackey Mitchell Architects",
    "type":"arch",
    "country":"US",
    "city":"St. Louis",
    "lon":-90.2428756,
    "lat":38.6319657,
    "order":310,
    "projects":[206]
              }
,
{"id": "311",
    "name":"Mader + Flatz",
    "type":"eng",
    "country":"AT",
    "city":"Bregenz",
    "lon":9.7472924,
    "lat":47.5025779,
    "order":311,
    "projects":[29]
              }
,
{"id": "312",
    "name":"Madergia",
    "type":"fab",
    "country":"ES",
    "city":"Ansoáin",
    "lon":-1.6481855,
    "lat":42.83831,
    "order":312,
    "projects":[264]
              }
,
{"id": "313",
    "name":"MAF Arkitektkontor",
    "type":"arch",
    "country":"SE",
    "city":"Piteå",
    "lon":21.4900252,
    "lat":65.3134652,
    "order":313,
    "projects":[271]
              }
,
{"id": "314",
    "name":"Magnolia Bostad AB",
    "type":"fab",
    "country":"SE",
    "city":"Stockholm",
    "lon":18.0710935,
    "lat":59.3251172,
    "order":314,
    "projects":[167]
              }
,
{"id": "315",
    "name":"Magnusson Klemencic Associates",
    "type":"eng",
    "country":"US",
    "city":"Seattle",
    "lon":-122.330062,
    "lat":47.6038321,
    "order":315,
    "projects":[145,242]
              }
,
{"id": "316",
    "name":"Makiol Wiederkehr",
    "type":"eng",
    "country":"CH",
    "city":"Beinwil am See ",
    "lon":8.2027093,
    "lat":47.2664506,
    "order":316,
    "projects":[7,41,49,72,119]
              }
,
{"id": "317",
    "name":"Manetsch Meyer",
    "type":"arch",
    "country":"CH",
    "city":"Zurich",
    "lon":8.5410422,
    "lat":47.3744489,
    "order":317,
    "projects":[228]
              }
,
{"id": "318",
    "name":"Manfred Gruber",
    "type":"arch",
    "country":"DE",
    "city":"Bad Saulgau",
    "lon":9.5010309,
    "lat":48.0158071,
    "order":318,
    "projects":[71]
              }
,
{"id": "319",
    "name":"Marco Gaudenzi & Associati",
    "type":"arch",
    "country":"IT",
    "city":"Pesaro",
    "lon":12.9131228,
    "lat":43.9098114,
    "order":319,
    "projects":[162]
              }
,
{"id": "320",
    "name":"Maria Kollmann Architekten BDA Stadtplaner",
    "type":"arch",
    "country":"DE",
    "city":"Konstanz",
    "lon":9.1750718,
    "lat":47.659216,
    "order":320,
    "projects":[159]
              }
,
{"id": "321",
    "name":"Marius ZT GmbH",
    "type":"eng",
    "country":"AT",
    "city":"Salzburg",
    "lon":13.0464806,
    "lat":47.7981346,
    "order":321,
    "projects":[83]
              }
,
{"id": "322",
    "name":"Mars Architectes",
    "type":"arch",
    "country":"FR",
    "city":"Paris",
    "lon":2.3200410217200766,
    "lat":48.8588897,
    "order":322,
    "projects":[257]
              }
,
{"id": "323",
    "name":"Martinsons",
    "type":"fab",
    "country":"SE",
    "city":"Umeå",
    "lon":20.2630745,
    "lat":63.8256568,
    "order":323,
    "projects":[13,19,97,129,172]
              }
,
{"id": "324",
    "name":"Masswerk Architekten",
    "type":"arch",
    "country":"DE",
    "city":"Bad Krozingen",
    "lon":7.7033313,
    "lat":47.9118288,
    "order":324,
    "projects":[126]
              }
,
{"id": "325",
    "name":"Mast Architects",
    "type":"arch",
    "country":"GB",
    "city":"Glasgow",
    "lon":-4.2488787,
    "lat":55.8609825,
    "order":325,
    "projects":[182]
              }
,
{"id": "326",
    "name":"Mathis SAS",
    "type":"fab",
    "country":"FR",
    "city":"Muttersholtz",
    "lon":7.5358375,
    "lat":48.2693062,
    "order":326,
    "projects":[131,222,237,238]
              }
,
{"id": "327",
    "name":"Matteo Thun",
    "type":"arch",
    "country":"IT",
    "city":"Milan",
    "lon":9.1896346,
    "lat":45.4641943,
    "order":327,
    "projects":[287]
              }
,
{"id": "328",
    "name":"Matti Iiramo Architects",
    "type":"arch",
    "country":"FI",
    "city":"Vantaa",
    "lon":25.0411832,
    "lat":60.2921321,
    "order":328,
    "projects":[106]
              }
,
{"id": "329",
    "name":"MDH Arkitekter",
    "type":"arch",
    "country":"NO",
    "city":"Oslo",
    "lon":10.7389701,
    "lat":59.9133301,
    "order":329,
    "projects":[141]
              }
,
{"id": "330",
    "name":"MEISSL Architects",
    "type":"arch",
    "country":"AT",
    "city":"Seefeld",
    "lon":11.1867187,
    "lat":47.3289241,
    "order":330,
    "projects":[287]
              }
,
{"id": "331",
    "name":"Merz Kley Partner",
    "type":"eng",
    "country":"AT",
    "city":"Dornbirn",
    "lon":9.7423875,
    "lat":47.413631,
    "order":331,
    "projects":[8,17,29,38,46,61,69,77,107,109,117,126,147,161,174,223,224]
              }
,
{"id": "332",
    "name":"Michael Green Architects",
    "type":"arch",
    "country":"CA",
    "city":"Vancouver",
    "lon":-123.113952,
    "lat":49.2608724,
    "order":332,
    "projects":[100,145,262,281]
              }
,
{"id": "333",
    "name":"Michael Hadi Associates",
    "type":"eng",
    "country":"GB",
    "city":"London",
    "lon":-0.1276474,
    "lat":51.5073219,
    "order":333,
    "projects":[20]
              }
,
{"id": "334",
    "name":"Miguel Rodríguez Nevado",
    "type":"eng",
    "country":"ES",
    "city":"Barcelona",
    "lon":2.1774322,
    "lat":41.3828939,
    "order":334,
    "projects":[81,190]
              }
,
{"id": "335",
    "name":"Miller Hull Partnership",
    "type":"arch",
    "country":"US",
    "city":"Seattle",
    "lon":-122.330062,
    "lat":47.6038321,
    "order":335,
    "projects":[55]
              }
,
{"id": "336",
    "name":"MoDus Architects",
    "type":"arch",
    "country":"IT",
    "city":"Bressanone",
    "lon":11.657792,
    "lat":46.716413,
    "order":336,
    "projects":[47]
              }
,
{"id": "337",
    "name":"Modus Studio",
    "type":"arch",
    "country":"US",
    "city":"Fayetteville",
    "lon":-94.1574328,
    "lat":36.0625843,
    "order":337,
    "projects":[206]
              }
,
{"id": "338",
    "name":"Moelven",
    "type":"fab",
    "country":"DE",
    "city":"Hamburg",
    "lon":10.000654,
    "lat":53.550341,
    "order":338,
    "projects":[128,129,170,232,213,217,298]
              }
,
{"id": "339",
    "name":"MOSAIK architekten bda",
    "type":"arch",
    "country":"DE",
    "city":"Hannover",
    "lon":9.7385532,
    "lat":52.3744779,
    "order":339,
    "projects":[284]
              }
,
{"id": "340",
    "name":"Müller Sigrist Architekten",
    "type":"arch",
    "country":"CH",
    "city":"Zurich",
    "lon":8.5410422,
    "lat":47.3744489,
    "order":340,
    "projects":[126]
              }
,
{"id": "341",
    "name":"müllerblaustein Holzbau GmbH",
    "type":"fab",
    "country":"DE",
    "city":"Blaustein",
    "lon":9.9187625,
    "lat":48.4159247,
    "order":341,
    "projects":[68,254]
              }
,
{"id": "342",
    "name":"Müllers Büro Architekturbüro",
    "type":"arch",
    "country":"DE",
    "city":"Berlin",
    "lon":13.3888599,
    "lat":52.5170365,
    "order":342,
    "projects":[24]
              }
,
{"id": "343",
    "name":"Multiconsult",
    "type":"eng",
    "country":"NO",
    "city":"Oslo",
    "lon":10.7389701,
    "lat":59.9133301,
    "order":343,
    "projects":[123,209]
              }
,
{"id": "344",
    "name":"Munzing Structural Engineering",
    "type":"eng",
    "country":"US",
    "city":"Portland",
    "lon":-122.674194,
    "lat":45.5202471,
    "order":344,
    "projects":[98,176]
              }
,
{"id": "345",
    "name":"MWV Bauingenieure AG",
    "type":"eng",
    "country":"CH",
    "city":"Baden",
    "lon":8.3086822,
    "lat":47.4736827,
    "order":345,
    "projects":[41]
              }
,
{"id": "346",
    "name":"Nabholz",
    "type":"fab",
    "country":"US",
    "city":"Conway",
    "lon":-92.4421011,
    "lat":35.0886963,
    "order":346,
    "projects":[206]
              }
,
{"id": "347",
    "name":"NÄNNY+PARTNER AG",
    "type":"eng",
    "country":"CH",
    "city":"St. Gallen",
    "lon":9.3765878,
    "lat":47.4250593,
    "order":347,
    "projects":[86]
              }
,
{"id": "348",
    "name":"neue Holzbau AG",
    "type":"fab",
    "country":"CH",
    "city":"Lungern",
    "lon":8.1607283,
    "lat":46.7857297,
    "order":348,
    "projects":[260]
              }
,
{"id": "349",
    "name":"Neumann Monson Architects",
    "type":"arch",
    "country":"US",
    "city":"Iowa City",
    "lon":-91.5299106,
    "lat":41.6612561,
    "order":349,
    "projects":[204]
              }
,
{"id": "350",
    "name":"NEUTELINGS RIEDIJK ARCHITECTS",
    "type":"arch",
    "country":"NL",
    "city":"Rotterdam",
    "lon":4.47775,
    "lat":51.9244424,
    "order":350,
    "projects":[218]
              }
,
{"id": "351",
    "name":"Ney + Partners",
    "type":"eng",
    "country":"BE",
    "city":"Brussels",
    "lon":4.351697,
    "lat":50.8465573,
    "order":351,
    "projects":[189,218]
              }
,
{"id": "352",
    "name":"Nick Bevanda",
    "type":"arch",
    "country":"CA",
    "city":"Vancouver",
    "lon":-123.113952,
    "lat":49.2608724,
    "order":352,
    "projects":[168]
              }
,
{"id": "353",
    "name":"Nigsch Holzbau GmbH",
    "type":"fab",
    "country":"AT",
    "city":"Blons",
    "lon":9.842567825511978,
    "lat":47.2418945,
    "order":353,
    "projects":[16]
              }
,
{"id": "354",
    "name":"NKBAK and etc.",
    "type":"arch",
    "country":"DE",
    "city":"Frankfurt",
    "lon":8.6820917,
    "lat":50.1106444,
    "order":354,
    "projects":[107]
              }
,
{"id": "355",
    "name":"Nordic Structures",
    "type":"fab",
    "country":"CA",
    "city":"Montreal",
    "lon":-73.5698065,
    "lat":45.5031824,
    "order":355,
    "projects":[102,133,144,166,236,289]
              }
,
{"id": "356",
    "name":"Nova Fundaziun Origen",
    "type":"arch",
    "country":"CH",
    "city":"Riom",
    "lon":9.5821873,
    "lat":46.60958,
    "order":356,
    "projects":[199]
              }
,
{"id": "357",
    "name":"Nowy Zorn ZT GmbH",
    "type":"eng",
    "country":"AT",
    "city":"Vienna",
    "lon":16.3725042,
    "lat":48.2083537,
    "order":357,
    "projects":[10]
              }
,
{"id": "358",
    "name":"Nussmüller Architekten",
    "type":"arch",
    "country":"AT",
    "city":"Graz",
    "lon":15.4382786,
    "lat":47.0708678,
    "order":358,
    "projects":[115,192]
              }
,
{"id": "359",
    "name":"oa.sys baut gmbh",
    "type":"fab",
    "country":"AT",
    "city":"Alberschwende",
    "lon":9.843567738999367,
    "lat":47.46147515,
    "order":359,
    "projects":[38]
              }
,
{"id": "360",
    "name":"Obermayr Holzkonstruktionen GmbH",
    "type":"eng",
    "country":"AT",
    "city":"Schwanenstadt",
    "lon":13.7749232,
    "lat":48.0545249,
    "order":360,
    "projects":[160]
              }
,
{"id": "361",
    "name":"Offsite Construction Centres Ltd (OCCL)",
    "type":"fab",
    "country":"GB",
    "city":"Gosport",
    "lon":-1.1210853,
    "lat":50.7952074,
    "order":361,
    "projects":[152]
              }
,
{"id": "362",
    "name":"Olaf Gipser Architects",
    "type":"arch",
    "country":"NL",
    "city":"Amsterdam",
    "lon":4.8936041,
    "lat":52.3727598,
    "order":362,
    "projects":[300]
              }
,
{"id": "363",
    "name":"Olin Partnership",
    "type":"arch",
    "country":"US",
    "city":"Philadelphia",
    "lon":-75.1635262,
    "lat":39.9527237,
    "order":363,
    "projects":[206]
              }
,
{"id": "364",
    "name":"Omniplan",
    "type":"arch",
    "country":"SE",
    "city":"Stockholm",
    "lon":18.0710935,
    "lat":59.3251172,
    "order":364,
    "projects":[164]
              }
,
{"id": "365",
    "name":"OOPEAA",
    "type":"arch",
    "country":"FI",
    "city":"Seinäjoki",
    "lon":22.8442015,
    "lat":62.7954104,
    "order":365,
    "projects":[114]
              }
,
{"id": "366",
    "name":"Origin Architects and Planners",
    "type":"arch",
    "country":"TW",
    "city":"Taichung",
    "lon":120.6478282,
    "lat":24.163162,
    "order":366,
    "projects":[101]
              }
,
{"id": "367",
    "name":"OSAR Architects",
    "type":"arch",
    "country":"BE",
    "city":"Antwerp",
    "lon":4.3997081,
    "lat":51.2211097,
    "order":367,
    "projects":[269,270]
              }
,
{"id": "368",
    "name":"Oskar Leo Kaufmann",
    "type":"arch",
    "country":"AT",
    "city":"Dornbirn",
    "lon":9.7423875,
    "lat":47.413631,
    "order":368,
    "projects":[17]
              }
,
{"id": "369",
    "name":"ossabois",
    "type":"fab",
    "country":"FR",
    "city":"Vêtre-sur-Anzon",
    "lon":3.8239382,
    "lat":45.8146348,
    "order":369,
    "projects":[149]
              }
,
{"id": "370",
    "name":"Osterwold°Schmidt Architekten",
    "type":"arch",
    "country":"DE",
    "city":"Weimar",
    "lon":11.3296637,
    "lat":50.9810486,
    "order":370,
    "projects":[45]
              }
,
{"id": "371",
    "name":"Oxid Architektur",
    "type":"arch",
    "country":"CH",
    "city":"Zurich",
    "lon":8.5410422,
    "lat":47.3744489,
    "order":371,
    "projects":[261]
              }
,
{"id": "372",
    "name":"OZ Architecture",
    "type":"arch",
    "country":"US",
    "city":"Denver",
    "lon":-104.984862,
    "lat":39.7392364,
    "order":372,
    "projects":[236]
              }
,
{"id": "373",
    "name":"Parklex International S.L.",
    "type":"fab",
    "country":"ES",
    "city":"Lesaka",
    "lon":-1.7043191,
    "lat":43.2471212,
    "order":373,
    "projects":[101]
              }
,
{"id": "374",
    "name":"Path Architecture",
    "type":"arch",
    "country":"US",
    "city":"New York",
    "lon":-74.0060152,
    "lat":40.7127281,
    "order":374,
    "projects":[98,176,282]
              }
,
{"id": "375",
    "name":"Penoyre & Prasad",
    "type":"arch",
    "country":"GB",
    "city":"London",
    "lon":-0.1276474,
    "lat":51.5073219,
    "order":375,
    "projects":[80]
              }
,
{"id": "376",
    "name":"PERISSINOTTO & BETTINI ASSOCIATI",
    "type":"arch",
    "country":"IT",
    "city":"Treviso",
    "lon":12.2455414,
    "lat":45.6658505,
    "order":376,
    "projects":[48]
              }
,
{"id": "377",
    "name":"Perkins & Will",
    "type":"arch",
    "country":"US",
    "city":"Chicago",
    "lon":-87.6244212,
    "lat":41.8755616,
    "order":377,
    "projects":[31,52,289]
              }
,
{"id": "378",
    "name":"PHILIP MEADOWCROFT ARCHITECTS",
    "type":"arch",
    "country":"GB",
    "city":"London",
    "lon":-0.1276474,
    "lat":51.5073219,
    "order":378,
    "projects":[23]
              }
,
{"id": "379",
    "name":"Pierce Engineers",
    "type":"eng",
    "country":"US",
    "city":"Milwaukee",
    "lon":-87.922497,
    "lat":43.0349931,
    "order":379,
    "projects":[283]
              }
,
{"id": "380",
    "name":"Pieters Bouwtechniek",
    "type":"eng",
    "country":"NL",
    "city":"Haarlem ",
    "lon":4.643559696559635,
    "lat":52.383705750000004,
    "order":380,
    "projects":[142,216]
              }
,
{"id": "381",
    "name":"Pirmin Jung",
    "type":"eng",
    "country":"CH",
    "city":"Rain",
    "lon":8.25914,
    "lat":47.1311133,
    "order":381,
    "projects":[56,118,126,173,197,208,228,250,251,300]
              }
,
{"id": "382",
    "name":"Piveteaubois",
    "type":"fab",
    "country":"FR",
    "city":"Essarts-en-Bocage",
    "lon":-1.2128522788918927,
    "lat":46.7860407,
    "order":382,
    "projects":[165]
              }
,
{"id": "383",
    "name":"PJCE",
    "type":"eng",
    "country":"GB",
    "city":"London",
    "lon":-0.1276474,
    "lat":51.5073219,
    "order":383,
    "projects":[157,130]
              }
,
{"id": "384",
    "name":"Plan4 AG",
    "type":"eng",
    "country":"CH",
    "city":"Bonaduz",
    "lon":9.3984396,
    "lat":46.81132,
    "order":384,
    "projects":[163]
              }
,
{"id": "385",
    "name":"Planungsbüro für Hoch und Tiefbau Dr. Ing. Stefano Brunetti",
    "type":"eng",
    "country":"IT",
    "city":"Bruneck",
    "lon":11.9355121,
    "lat":46.7963194,
    "order":385,
    "projects":[169]
              }
,
{"id": "386",
    "name":"Planungsgesellschaft Dittrich MBH",
    "type":"eng",
    "country":"DE",
    "city":"Munich",
    "lon":11.5753822,
    "lat":48.1371079,
    "order":386,
    "projects":[59,68]
              }
,
{"id": "387",
    "name":"PLANUNGSWERFT Schuchard & Stolte Ing. GmbH",
    "type":"eng",
    "country":"DE",
    "city":"Husum",
    "lon":9.0538156,
    "lat":54.4853638,
    "order":387,
    "projects":[202]
              }
,
{"id": "388",
    "name":"pool Architekten",
    "type":"arch",
    "country":"CH",
    "city":"Zurich",
    "lon":8.5410422,
    "lat":47.3744489,
    "order":388,
    "projects":[27,41,111]
              }
,
{"id": "389",
    "name":"Poppensieker & Derix GmbH & Co. KG",
    "type":"fab",
    "country":"DE",
    "city":"Westerkappeln",
    "lon":7.8772237,
    "lat":52.3141716,
    "order":389,
    "projects":[202]
              }
,
{"id": "390",
    "name":"POST architectes",
    "type":"arch",
    "country":"FR",
    "city":"Lille",
    "lon":3.0635282,
    "lat":50.6365654,
    "order":390,
    "projects":[198]
              }
,
{"id": "391",
    "name":"PPA architectures",
    "type":"arch",
    "country":"FR",
    "city":"Toulouse",
    "lon":1.4442469,
    "lat":43.6044622,
    "order":391,
    "projects":[116]
              }
,
{"id": "392",
    "name":"PPAG architects ztgmbh",
    "type":"arch",
    "country":"AT",
    "city":"Vienna",
    "lon":16.3725042,
    "lat":48.2083537,
    "order":392,
    "projects":[123]
              }
,
{"id": "393",
    "name":"Praeger Richter Architekten",
    "type":"arch",
    "country":"DE",
    "city":"Berlin",
    "lon":13.3888599,
    "lat":52.5170365,
    "order":393,
    "projects":[273]
              }
,
{"id": "394",
    "name":"Price & Myers",
    "type":"eng",
    "country":"GB",
    "city":"London",
    "lon":-0.1276474,
    "lat":51.5073219,
    "order":394,
    "projects":[23,44,80,89,135,143,194]
              }
,
{"id": "395",
    "name":"Projekt-Bau Kluge",
    "type":"eng",
    "country":"DE",
    "city":"Kerkwitz",
    "lon":14.634763663265101,
    "lat":51.9057314,
    "order":395,
    "projects":[273]
              }
,
{"id": "396",
    "name":"Projektbyggaren",
    "type":"eng",
    "country":"SE",
    "city":"Karlskrona",
    "lon":15.5866422,
    "lat":56.1621073,
    "order":396,
    "projects":[246]
              }
,
{"id": "397",
    "name":"Proscnium Architecture+Interiors",
    "type":"arch",
    "country":"CA",
    "city":"Vancouver",
    "lon":-123.113952,
    "lat":49.2608724,
    "order":397,
    "projects":[110]
              }
,
{"id": "398",
    "name":"Pyrénées Charpentes",
    "type":"fab",
    "country":"FR",
    "city":"Agos-Vidalos",
    "lon":-0.0720746,
    "lat":43.0343616,
    "order":398,
    "projects":[116,212]
              }
,
{"id": "399",
    "name":"Quadriplus Group",
    "type":"eng",
    "country":"FR",
    "city":"Vaulx-en-Velin",
    "lon":4.9206153,
    "lat":45.7784255,
    "order":399,
    "projects":[253]
              }
,
{"id": "400",
    "name":"Quay2c Architects",
    "type":"arch",
    "country":"GB",
    "city":"London",
    "lon":-0.1276474,
    "lat":51.5073219,
    "order":400,
    "projects":[6]
              }
,
{"id": "401",
    "name":"r2k Architecte",
    "type":"arch",
    "country":"FR",
    "city":"Grenoble",
    "lon":5.7357819,
    "lat":45.1875602,
    "order":401,
    "projects":[58]
              }
,
{"id": "402",
    "name":"Raimund Baumgartner GmbH",
    "type":"fab",
    "country":"AT",
    "city":"Reichenfels",
    "lon":14.7399095,
    "lat":47.0076132,
    "order":402,
    "projects":[67]
              }
,
{"id": "403",
    "name":"Raker Rhodes Engineering",
    "type":"eng",
    "country":"US",
    "city":"Des Moines",
    "lon":-93.6046655,
    "lat":41.5910323,
    "order":403,
    "projects":[204]
              }
,
{"id": "404",
    "name":"Ramboll",
    "type":"eng",
    "country":"DK",
    "city":"Copenhagen",
    "lon":12.5700724,
    "lat":55.6867243,
    "order":404,
    "projects":[26,67,90,99,146,157]
              }
,
{"id": "405",
    "name":"Rapin Saiz Architectes ",
    "type":"arch",
    "country":"CH",
    "city":"Vevey",
    "lon":6.8418655,
    "lat":46.4602978,
    "order":405,
    "projects":[94]
              }
,
{"id": "406",
    "name":"Rapp Architekten",
    "type":"arch",
    "country":"DE",
    "city":"Ulm",
    "lon":9.9934336,
    "lat":48.3974003,
    "order":406,
    "projects":[254]
              }
,
{"id": "407",
    "name":"Ratio Bois",
    "type":"eng",
    "country":"CH",
    "city":"Cuarny",
    "lon":6.6884422,
    "lat":46.7700368,
    "order":407,
    "projects":[94]
              }
,
{"id": "408",
    "name":"RAU Architects",
    "type":"arch",
    "country":"NL",
    "city":"Amsterdam",
    "lon":4.8936041,
    "lat":52.3727598,
    "order":408,
    "projects":[245]
              }
,
{"id": "409",
    "name":"Reich und Seiler Freie Architekten BDA",
    "type":"arch",
    "country":"DE",
    "city":"Karlsruhe",
    "lon":8.4034195,
    "lat":49.0068705,
    "order":409,
    "projects":[293]
              }
,
{"id": "410",
    "name":"Renggli AG",
    "type":"eng",
    "country":"CH",
    "city":"Winterthur",
    "lon":8.7291498,
    "lat":47.4991723,
    "order":410,
    "projects":[119,151,261,279]
              }
,
{"id": "411",
    "name":"Richard Jackson Limited",
    "type":"eng",
    "country":"GB",
    "city":"London",
    "lon":-0.1276474,
    "lat":51.5073219,
    "order":411,
    "projects":[104]
              }
,
{"id": "412",
    "name":"Riepl Riepl Architekten",
    "type":"arch",
    "country":"AT",
    "city":"Vienna",
    "lon":16.3725042,
    "lat":48.2083537,
    "order":412,
    "projects":[4]
              }
,
{"id": "413",
    "name":"RJC Engineers",
    "type":"eng",
    "country":"CA",
    "city":"Vancouver",
    "lon":-123.113952,
    "lat":49.2608724,
    "order":413,
    "projects":[168]
              }
,
{"id": "414",
    "name":"Robert Bird Group",
    "type":"eng",
    "country":"GB",
    "city":"London",
    "lon":-0.1276474,
    "lat":51.5073219,
    "order":414,
    "projects":[127]
              }
,
{"id": "415",
    "name":"roedig.schop architekten bda",
    "type":"arch",
    "country":"DE",
    "city":"Berlin",
    "lon":13.3888599,
    "lat":52.5170365,
    "order":415,
    "projects":[40]
              }
,
{"id": "416",
    "name":"Rolf Mühlethaler",
    "type":"arch",
    "country":"CH",
    "city":"Bern",
    "lon":7.4514512,
    "lat":46.9482713,
    "order":416,
    "projects":[151,210]
              }
,
{"id": "417",
    "name":"Rolton Group",
    "type":"eng",
    "country":"GB",
    "city":"Higham Ferrers",
    "lon":-0.5923318,
    "lat":52.3060303,
    "order":417,
    "projects":[155]
              }
,
{"id": "418",
    "name":"Rositch Hemphill Architects",
    "type":"arch",
    "country":"CA",
    "city":"Vancouver",
    "lon":-123.113952,
    "lat":49.2608724,
    "order":418,
    "projects":[201]
              }
,
{"id": "419",
    "name":"RossiProdi Associati",
    "type":"arch",
    "country":"IT",
    "city":"Firenze",
    "lon":11.2555757,
    "lat":43.7698712,
    "order":419,
    "projects":[75]
              }
,
{"id": "420",
    "name":"Royal Haskoning DHV",
    "type":"eng",
    "country":"NL",
    "city":"Amersfoort",
    "lon":5.3896944,
    "lat":52.1562499,
    "order":420,
    "projects":[42]
              }
,
{"id": "421",
    "name":"Rubner Holzbau",
    "type":"fab",
    "country":"DE",
    "city":"Augsburg",
    "lon":10.8986971,
    "lat":48.3668041,
    "order":421,
    "projects":[143,286]
              }
,
{"id": "422",
    "name":"Rüdiger Lainer + Partner",
    "type":"arch",
    "country":"AT",
    "city":"Vienna",
    "lon":16.3725042,
    "lat":48.2083537,
    "order":422,
    "projects":[183,266]
              }
,
{"id": "423",
    "name":"Ruggli Partner",
    "type":"eng",
    "country":"CH",
    "city":"Zürich",
    "lon":8.5410422,
    "lat":47.3744489,
    "order":423,
    "projects":[54]
              }
,
{"id": "424",
    "name":"rundzwei Architekten",
    "type":"arch",
    "country":"DE",
    "city":"Berlin",
    "lon":13.3888599,
    "lat":52.5170365,
    "order":424,
    "projects":[214]
              }
,
{"id": "425",
    "name":"RWT PLUS",
    "type":"eng",
    "country":"AT",
    "city":"Vienna",
    "lon":16.3725042,
    "lat":48.2083537,
    "order":425,
    "projects":[76]
              }
,
{"id": "426",
    "name":"Ryan Companies Architecture + Engineering",
    "type":"arch",
    "country":"US",
    "city":"Minneapolis",
    "lon":-93.2654692,
    "lat":44.9772995,
    "order":426,
    "projects":[204]
              }
,
{"id": "427",
    "name":"SAAHA architects",
    "type":"arch",
    "country":"NO",
    "city":"Oslo",
    "lon":10.7389701,
    "lat":59.9133301,
    "order":427,
    "projects":[209]
              }
,
{"id": "428",
    "name":"Santner & Spehs OEG",
    "type":"fab",
    "country":"AT",
    "city":"Graz",
    "lon":15.4382786,
    "lat":47.0708678,
    "order":428,
    "projects":[5]
              }
,
{"id": "429",
    "name":"sAtt Arquitectura",
    "type":"arch",
    "country":"ES",
    "city":"Madrid",
    "lon":-3.7035825,
    "lat":40.4167047,
    "order":429,
    "projects":[264]
              }
,
{"id": "430",
    "name":"Sauerbruch Hutton",
    "type":"arch",
    "country":"DE",
    "city":"Berlin",
    "lon":13.3888599,
    "lat":52.5170365,
    "order":430,
    "projects":[174]
              }
,
{"id": "431",
    "name":"Schäfer Engineering",
    "type":"eng",
    "country":"DE",
    "city":"Hohenwart",
    "lon":11.3861269,
    "lat":48.5925228,
    "order":431,
    "projects":[102]
              }
,
{"id": "432",
    "name":"schäferwenningerprojekt GmbH",
    "type":"arch",
    "country":"DE",
    "city":"Berlin",
    "lon":13.3888599,
    "lat":52.5170365,
    "order":432,
    "projects":[229]
              }
,
{"id": "433",
    "name":"Schankula Architects",
    "type":"arch",
    "country":"GB",
    "city":"London",
    "lon":-0.1276474,
    "lat":51.5073219,
    "order":433,
    "projects":[22,33]
              }
,
{"id": "434",
    "name":"Scharabi Architekten",
    "type":"arch",
    "country":"DE",
    "city":"Berlin",
    "lon":13.3888599,
    "lat":52.5170365,
    "order":434,
    "projects":[184]
              }
,
{"id": "435",
    "name":"Scheitlin-Syfrig",
    "type":"arch",
    "country":"CH",
    "city":"Luzern",
    "lon":8.3054682,
    "lat":47.0505452,
    "order":435,
    "projects":[7]
              }
,
{"id": "436",
    "name":"Schluder Architektur",
    "type":"arch",
    "country":"AT",
    "city":"Vienna",
    "lon":16.3725042,
    "lat":48.2083537,
    "order":436,
    "projects":[76]
              }
,
{"id": "437",
    "name":"architekt christoph schneider",
    "type":"arch",
    "country":"DE",
    "city":"Munich",
    "lon":11.5753822,
    "lat":48.1371079,
    "order":437,
    "projects":[113]
              }
,
{"id": "438",
    "name":"Scope Architekten",
    "type":"arch",
    "country":"DE",
    "city":"Stuttgart",
    "lon":9.1800132,
    "lat":48.7784485,
    "order":438,
    "projects":[248]
              }
,
{"id": "439",
    "name":"Scott Rasmusson Källander",
    "type":"arch",
    "country":"SE",
    "city":"Stockholm",
    "lon":18.0710935,
    "lat":59.3251172,
    "order":439,
    "projects":[167]
              }
,
{"id": "440",
    "name":"Scott Williams",
    "type":"arch",
    "country":"US",
    "city":"Madison",
    "lon":-89.3837613,
    "lat":43.074761,
    "order":440,
    "projects":[15]
              }
,
{"id": "441",
    "name":"SCYNA 4",
    "type":"eng",
    "country":"FR",
    "city":"Ivry-sur-Seine",
    "lon":2.3872525,
    "lat":48.8122302,
    "order":441,
    "projects":[222,257]
              }
,
{"id": "442",
    "name":"SeARCH",
    "type":"arch",
    "country":"NL",
    "city":"Amsterdam",
    "lon":4.8936041,
    "lat":52.3727598,
    "order":442,
    "projects":[185]
              }
,
{"id": "443",
    "name":"Seiler Linhart Architekten",
    "type":"arch",
    "country":"CH",
    "city":"Luzern",
    "lon":8.3054682,
    "lat":47.0505452,
    "order":443,
    "projects":[260]
              }
,
{"id": "444",
    "name":"Sertelet",
    "type":"fab",
    "country":"FR",
    "city":"Provenchères-sur-Fave",
    "lon":7.073765463138623,
    "lat":48.3155291,
    "order":444,
    "projects":[96]
              }
,
{"id": "445",
    "name":"Service Legno",
    "type":"fab",
    "country":"IT",
    "city":"Picerno ",
    "lon":15.6358739,
    "lat":40.6384561,
    "order":445,
    "projects":[50]
              }
,
{"id": "446",
    "name":"Setra",
    "type":"fab",
    "country":"SE",
    "city":"Solna",
    "lon":18.0013693,
    "lat":59.361367,
    "order":446,
    "projects":[213]
              }
,
{"id": "447",
    "name":"Sheppard Robson",
    "type":"arch",
    "country":"GB",
    "city":"London",
    "lon":-0.1276474,
    "lat":51.5073219,
    "order":447,
    "projects":[26]
              }
,
{"id": "448",
    "name":"Shigeru Ban",
    "type":"arch",
    "country":"JP",
    "city":"Tokyo",
    "lon":139.757653,
    "lat":35.6812665,
    "order":448,
    "projects":[73,233]
              }
,
{"id": "449",
    "name":"shl ingenieure",
    "type":"eng",
    "country":"DE",
    "city":"Hannover",
    "lon":9.7385532,
    "lat":52.3744779,
    "order":449,
    "projects":[284]
              }
,
{"id": "450",
    "name":"Sieveke Zimmerei",
    "type":"fab",
    "country":"DE",
    "city":"Lohne",
    "lon":8.2363523,
    "lat":52.665257,
    "order":450,
    "projects":[214]
              }
,
{"id": "451",
    "name":"sitka.kaserer.architekten",
    "type":"arch",
    "country":"AT",
    "city":"Saalfelden",
    "lon":12.8481048,
    "lat":47.4266166,
    "order":451,
    "projects":[35]
              }
,
{"id": "452",
    "name":"SJB Kempter Fitze AG",
    "type":"eng",
    "country":"CH",
    "city":"Herisau",
    "lon":9.2787571,
    "lat":47.38555,
    "order":452,
    "projects":[27,79,86,233]
              }
,
{"id": "453",
    "name":"Skylab",
    "type":"arch",
    "country":"US",
    "city":"Portland",
    "lon":-122.674194,
    "lat":45.5202471,
    "order":453,
    "projects":[239]
              }
,
{"id": "454",
    "name":"SmartLam NA",
    "type":"fab",
    "country":"US",
    "city":"Columbia Falls",
    "lon":-114.191582,
    "lat":48.3697168,
    "order":454,
    "projects":[15]
              }
,
{"id": "455",
    "name":"SNC Lavalin",
    "type":"eng",
    "country":"CA",
    "city":"Montreal",
    "lon":-73.5698065,
    "lat":45.5031824,
    "order":455,
    "projects":[165]
              }
,
{"id": "456",
    "name":"Sohm HolzBautechnik GmbH",
    "type":"fab",
    "country":"AT",
    "city":"Alberschwende",
    "lon":9.843567738999367,
    "lat":47.46147515,
    "order":456,
    "projects":[111]
              }
,
{"id": "457",
    "name":"SOPPELSA ARCHITEKTEN",
    "type":"arch",
    "country":"CH",
    "city":"Zurich",
    "lon":8.5410422,
    "lat":47.3744489,
    "order":457,
    "projects":[195]
              }
,
{"id": "458",
    "name":"Space M2",
    "type":"fab",
    "country":"SE",
    "city":"Kvänum",
    "lon":13.1865957,
    "lat":58.3014307,
    "order":458,
    "projects":[181]
              }
,
{"id": "459",
    "name":"Specimen Architects",
    "type":"arch",
    "country":"BE",
    "city":"Namur",
    "lon":4.8661892,
    "lat":50.4665284,
    "order":459,
    "projects":[189]
              }
,
{"id": "460",
    "name":"Spillmann Echsle Architekten",
    "type":"arch",
    "country":"CH",
    "city":"Zurich",
    "lon":8.5410422,
    "lat":47.3744489,
    "order":460,
    "projects":[153]
              }
,
{"id": "461",
    "name":"Spreen Architekten",
    "type":"arch",
    "country":"DE",
    "city":"Munich",
    "lon":11.5753822,
    "lat":48.1371079,
    "order":461,
    "projects":[223]
              }
,
{"id": "462",
    "name":"Spridd",
    "type":"arch",
    "country":"SE",
    "city":"Stockholm",
    "lon":18.0710935,
    "lat":59.3251172,
    "order":462,
    "projects":[170]
              }
,
{"id": "463",
    "name":"sps architekten",
    "type":"arch",
    "country":"AT",
    "city":"Thalgau",
    "lon":13.2535481,
    "lat":47.8414905,
    "order":463,
    "projects":[10,69,109]
              }
,
{"id": "464",
    "name":"Stantec",
    "type":"eng",
    "country":"CA",
    "city":"Edmonton",
    "lon":-113.491241,
    "lat":53.5462055,
    "order":464,
    "projects":[30,272]
              }
,
{"id": "465",
    "name":"Stifter + Bachmann",
    "type":"arch",
    "country":"IT",
    "city":"Bachla",
    "lon":11.894550,
    "lat":46.813210,
    "order":465,
    "projects":[169]
              }
,
{"id": "466",
    "name":"Stora Enso",
    "type":"fab",
    "country":"FI",
    "city":"Helsinki",
    "lon":24.9427473,
    "lat":60.1674881,
    "order":466,
    "projects":[64,106,123,125,139,178,182,191,193,198,212,269,280,290,297]
              }
,
{"id": "467",
    "name":"STRABAG",
    "type":"fab",
    "country":"AT",
    "city":"Vienna",
    "lon":16.3725042,
    "lat":48.2083537,
    "order":467,
    "projects":[57]
              }
,
{"id": "468",
    "name":"Strobl Bau - Holzbau GmbH",
    "type":"fab",
    "country":"AT",
    "city":"Weiz",
    "lon":15.6221694,
    "lat":47.2174206,
    "order":468,
    "projects":[192,219]
              }
,
{"id": "469",
    "name":"Structure Workshop",
    "type":"eng",
    "country":"GB",
    "city":"London",
    "lon":-0.1276474,
    "lat":51.5073219,
    "order":469,
    "projects":[91]
              }
,
{"id": "470",
    "name":"StructureCraft",
    "type":"fab",
    "country":"CA",
    "city":"Abbotsford",
    "lon":-122.329479,
    "lat":49.0521162,
    "order":470,
    "projects":[145,204,241,242]
              }
,
{"id": "471",
    "name":"Structurlam Mass Timber Corporation",
    "type":"fab",
    "country":"CA",
    "city":"Penticton",
    "lon":-119.5932499,
    "lat":49.5003268,
    "order":471,
    "projects":[52,100,110,168,176,201]
              }
,
{"id": "472",
    "name":"Studio Ekberg",
    "type":"arch",
    "country":"SE",
    "city":"Göteborg",
    "lon":11.9670171,
    "lat":57.7072326,
    "order":472,
    "projects":[217]
              }
,
{"id": "473",
    "name":"Studio RHE",
    "type":"arch",
    "country":"GB",
    "city":"London",
    "lon":-0.1276474,
    "lat":51.5073219,
    "order":473,
    "projects":[187]
              }
,
{"id": "474",
    "name":"Sursee Tschopp Holzbau AG",
    "type":"fab",
    "country":"CH",
    "city":"Hochdorf",
    "lon":8.2899709,
    "lat":47.1665361,
    "order":474,
    "projects":[126]
              }
,
{"id": "475",
    "name":"Sweco",
    "type":"eng",
    "country":"SE",
    "city":"Stockholm",
    "lon":18.0710935,
    "lat":59.3251172,
    "order":475,
    "projects":[93,106,114,128,232,252,301]
              }
